[
    {
        "city": "CONCEPCION HUISTA", 
        "admin": "", 
        "country": "Guatemala", 
        "population_proper": "", 
        "iso2": "GT", 
        "capital": "minor", 
        "lat": "15.6235", 
        "lng": "-91.6275", 
        "population": ""
    },
    {
        "city": "IXCAN", 
        "admin": "", 
        "country": "Guatemala", 
        "population_proper": "", 
        "iso2": "GT", 
        "capital": "minor", 
        "lat": "15.9863", 
        "lng": "-90.7675", 
        "population": ""
    },
    {
        "city": "MELCHOR DE MENCOS", 
        "admin": "", 
        "country": "Guatemala", 
        "population_proper": "", 
        "iso2": "GT", 
        "capital": "minor", 
        "lat": "17.0581", 
        "lng": "-89.1563", 
        "population": ""
    },
    {
        "city": "PACHALUM", 
        "admin": "", 
        "country": "Guatemala", 
        "population_proper": "", 
        "iso2": "GT", 
        "capital": "minor", 
        "lat": "14.9248", 
        "lng": "-90.6643", 
        "population": ""
    },
    {
        "city": "PUEBLO NUEVO VIÑAS", 
        "admin": "", 
        "country": "Guatemala", 
        "population_proper": "", 
        "iso2": "GT", 
        "capital": "minor", 
        "lat": "14.2289", 
        "lng": "-90.4774", 
        "population": ""
    },
    {
        "city": "PUERTO DE SAN JOSE", 
        "admin": "", 
        "country": "Guatemala", 
        "population_proper": "", 
        "iso2": "GT", 
        "capital": "minor", 
        "lat": "13.9304", 
        "lng": "-90.8342", 
        "population": ""
    },
    {
        "city": "SAN JACINTO", 
        "admin": "", 
        "country": "Guatemala", 
        "population_proper": "", 
        "iso2": "GT", 
        "capital": "minor", 
        "lat": "33.7839", 
        "lng": "-116.9586", 
        "population": ""
    },
    {
        "city": "SAN JACINTO", 
        "admin": "", 
        "country": "Guatemala", 
        "population_proper": "", 
        "iso2": "GT", 
        "capital": "minor", 
        "lat": "14.6700", 
        "lng": "-89.5403", 
        "population": ""
    },
    {
        "city": "SAN MIGUEL DUEÑAS", 
        "admin": "", 
        "country": "Guatemala", 
        "population_proper": "", 
        "iso2": "GT", 
        "capital": "minor", 
        "lat": "14.5205", 
        "lng": "-90.7985", 
        "population": ""
    },
    {
        "city": "SAN MIGUEL PETAPA", 
        "admin": "", 
        "country": "Guatemala", 
        "population_proper": "", 
        "iso2": "GT", 
        "capital": "minor", 
        "lat": "14.5028", 
        "lng": "-90.5517", 
        "population": ""
       
    },
    {
        "city": "SANTA CATALINA LA TINTA", 
        "admin": "", 
        "country": "Guatemala", 
        "population_proper": "", 
        "iso2": "GT", 
        "capital": "minor", 
        "lat": "15.3116", 
        "lng": "-89.8844",
        "population": ""
       
    },
    {
        "city": "SIPACATE", 
        "admin": "", 
        "country": "Guatemala", 
        "population_proper": "", 
        "iso2": "GT", 
        "capital": "minor", 
        "lat": "13.9306", 
        "lng": "-91.1461",
        "population": ""
       
    },

    {
        "city": "TIQUISATE", 
        "admin": "", 
        "country": "Guatemala", 
        "population_proper": "", 
        "iso2": "GT", 
        "capital": "minor", 
        "lat": "14.2851", 
        "lng": "91.3638",
        "population": ""
       
    },

    {
        "city": "UNION CANTINIL", 
        "admin": "", 
        "country": "Guatemala", 
        "population_proper": "", 
        "iso2": "GT", 
        "capital": "minor", 
        "lat": "15.5992", 
        "lng": "91.7441",
        "population": ""
       
    },

    {
        "city": "Guatemala", 
        "admin": "Guatemala", 
        "country": "Guatemala", 
        "population_proper": "994938", 
        "iso2": "GT", 
        "capital": "minor", 
        "lat": "14.633426", 
        "lng": "-90.516722", 
        "population": "1024000"
    }, 
    {
        "city": "Quetzaltenango", 
        "admin": "Quetzaltenango", 
        "country": "Guatemala", 
        "population_proper": "224703", 
        "iso2": "GT", 
        "capital": "admin", 
        "lat": "14.834722", 
        "lng": "-91.518056", 
        "population": "575263"
    }, 
    {
        "city": "San Luis", 
        "admin": "Pet\u00e9n", 
        "country": "Guatemala", 
        "population_proper": "6776", 
        "iso2": "GT", 
        "capital": "minor", 
        "lat": "16.198889", 
        "lng": "-89.440278", 
        "population": "132470"
    }, 
    {
        "city": "Escuintla", 
        "admin": "Escuintla", 
        "country": "Guatemala", 
        "population_proper": "103165", 
        "iso2": "GT", 
        "capital": "admin", 
        "lat": "14.305", 
        "lng": "-90.785", 
        "population": "107638"
    }, 
    {
        "city": "Huehuetenango", 
        "admin": "Huehuetenango", 
        "country": "Guatemala", 
        "population_proper": "79426", 
        "iso2": "GT", 
        "capital": "admin", 
        "lat": "15.319722", 
        "lng": "-91.470833", 
        "population": "85992"
    }, 
    {
        "city": "Chimaltenango", 
        "admin": "Chimaltenango", 
        "country": "Guatemala", 
        "population_proper": "82370", 
        "iso2": "GT", 
        "capital": "admin", 
        "lat": "14.661111", 
        "lng": "-90.819444", 
        "population": "82370"
    }, 
    {
        "city": "Totonicap\u00e1n", 
        "admin": "Totonicap\u00e1n", 
        "country": "Guatemala", 
        "population_proper": "69734", 
        "iso2": "GT", 
        "capital": "admin", 
        "lat": "14.911667", 
        "lng": "-91.361111", 
        "population": "69734"
    }, 
    {
        "city": "Cob\u00e1n", 
        "admin": "Alta Verapaz", 
        "country": "Guatemala", 
        "population_proper": "53375", 
        "iso2": "GT", 
        "capital": "admin", 
        "lat": "15.470833", 
        "lng": "-90.370833", 
        "population": "65194"
    }, 
    {
        "city": "Mazatenango", 
        "admin": "Suchitep\u00e9quez", 
        "country": "Guatemala", 
        "population_proper": "44132", 
        "iso2": "GT", 
        "capital": "admin", 
        "lat": "14.534167", 
        "lng": "-91.503333", 
        "population": "64652"
    }, 
    {
        "city": "Puerto Barrios", 
        "admin": "Izabal", 
        "country": "Guatemala", 
        "population_proper": "53150", 
        "iso2": "GT", 
        "capital": "admin", 
        "lat": "15.727778", 
        "lng": "-88.594444", 
        "population": "56605"
    }, 
    {
        "city": "Jutiapa", 
        "admin": "Jutiapa", 
        "country": "Guatemala", 
        "population_proper": "34332", 
        "iso2": "GT", 
        "capital": "admin", 
        "lat": "14.291667", 
        "lng": "-89.895833", 
        "population": "50681"
    }, 
    {
        "city": "Jalapa", 
        "admin": "Jalapa", 
        "country": "Guatemala", 
        "population_proper": "45834", 
        "iso2": "GT", 
        "capital": "admin", 
        "lat": "14.634722", 
        "lng": "-89.988889", 
        "population": "45834"
    }, 
    {
        "city": "Solol\u00e1", 
        "admin": "Solol\u00e1", 
        "country": "Guatemala", 
        "population_proper": "45373", 
        "iso2": "GT", 
        "capital": "admin", 
        "lat": "14.772222", 
        "lng": "-91.183333", 
        "population": "45373"
    }, 
    {
        "city": "Chiquimula", 
        "admin": "Chiquimula", 
        "country": "Guatemala", 
        "population_proper": "41521", 
        "iso2": "GT", 
        "capital": "admin", 
        "lat": "14.8", 
        "lng": "-89.545833", 
        "population": "41521"
    }, 
    {
        "city": "Salam\u00e1", 
        "admin": "Baja Verapaz", 
        "country": "Guatemala", 
        "population_proper": "40000", 
        "iso2": "GT", 
        "capital": "admin", 
        "lat": "15.102778", 
        "lng": "-90.318056", 
        "population": "40000"
    }, 
    {
        "city": "Antigua Guatemala", 
        "admin": "Sacatep\u00e9quez", 
        "country": "Guatemala", 
        "population_proper": "39368", 
        "iso2": "GT", 
        "capital": "admin", 
        "lat": "14.561111", 
        "lng": "-90.734444", 
        "population": "39368"
    }, 
    {
        "city": "Flores", 
        "admin": "Pet\u00e9n", 
        "country": "Guatemala", 
        "population_proper": "20464", 
        "iso2": "GT", 
        "capital": "admin", 
        "lat": "16.921667", 
        "lng": "-89.895278", 
        "population": "38035"
    }, 
    {
        "city": "Retalhuleu", 
        "admin": "Retalhuleu", 
        "country": "Guatemala", 
        "population_proper": "36656", 
        "iso2": "GT", 
        "capital": "admin", 
        "lat": "14.536111", 
        "lng": "-91.677778", 
        "population": "36656"
    }, 
    {
        "city": "Zacapa", 
        "admin": "Zacapa", 
        "country": "Guatemala", 
        "population_proper": "36088", 
        "iso2": "GT", 
        "capital": "admin", 
        "lat": "14.972222", 
        "lng": "-89.530556", 
        "population": "36088"
    }, 
    {
        "city": "San Marcos", 
        "admin": "San Marcos", 
        "country": "Guatemala", 
        "population_proper": "25088", 
        "iso2": "GT", 
        "capital": "admin", 
        "lat": "14.963889", 
        "lng": "-91.794444", 
        "population": "25088"
    }, 
    {
        "city": "Santa Cruz del Quich\u00e9", 
        "admin": "Quich\u00e9", 
        "country": "Guatemala", 
        "population_proper": "23618", 
        "iso2": "GT", 
        "capital": "admin", 
        "lat": "15.030556", 
        "lng": "-91.148889", 
        "population": "23618"
    }, 
    {
        "city": "San Jos\u00e9", 
        "admin": "Escuintla", 
        "country": "Guatemala", 
        "population_proper": "9841", 
        "iso2": "GT", 
        "capital": "minor", 
        "lat": "13.916667", 
        "lng": "-90.816666", 
        "population": "18655"
    }, 
    {
        "city": "Cuilapa", 
        "admin": "Santa Rosa", 
        "country": "Guatemala", 
        "population_proper": "16484", 
        "iso2": "GT", 
        "capital": "admin", 
        "lat": "14.276389", 
        "lng": "-90.298889", 
        "population": "16484"
    }, 
    {
        "city": "L\u00edvingston", 
        "admin": "Izabal", 
        "country": "Guatemala", 
        "population_proper": "10255", 
        "iso2": "GT", 
        "capital": "minor", 
        "lat": "15.833333", 
        "lng": "-88.75", 
        "population": "14350"
    }, 
    {
        "city": "La Libertad", 
        "admin": "Pet\u00e9n", 
        "country": "Guatemala", 
        "population_proper": "8523", 
        "iso2": "GT", 
        "capital": "minor", 
        "lat": "16.788497", 
        "lng": "-90.116978", 
        "population": "8646"
    }, 
    {
        "city": "Quezaltepeque", 
        "admin": "Chiquimula", 
        "country": "Guatemala", 
        "population_proper": "", 
        "iso2": "GT", 
        "capital": "minor", 
        "lat": "14.633333", 
        "lng": "-89.45", 
        "population": ""
    }, 
    {
        "city": "Mixco", 
        "admin": "Guatemala", 
        "country": "Guatemala", 
        "population_proper": "", 
        "iso2": "GT", 
        "capital": "minor", 
        "lat": "14.633333", 
        "lng": "-90.606389", 
        "population": ""
    }, 
    {
        "city": "Huit\u00e9", 
        "admin": "Zacapa", 
        "country": "Guatemala", 
        "population_proper": "", 
        "iso2": "GT", 
        "capital": "minor", 
        "lat": "14.933333", 
        "lng": "-89.716667", 
        "population": ""
    }, 
    {
        "city": "Huit\u00e1n", 
        "admin": "Quetzaltenango", 
        "country": "Guatemala", 
        "population_proper": "", 
        "iso2": "GT", 
        "capital": "minor", 
        "lat": "15.049201", 
        "lng": "-91.639439", 
        "population": ""
    }, 
    {
        "city": "Magdalena Milpas Altas", 
        "admin": "Sacatep\u00e9quez", 
        "country": "Guatemala", 
        "population_proper": "", 
        "iso2": "GT", 
        "capital": "minor", 
        "lat": "14.545278", 
        "lng": "-90.675278", 
        "population": ""
    }, 
    {
        "city": "Tecp\u00e1n Guatemala", 
        "admin": "Chimaltenango", 
        "country": "Guatemala", 
        "population_proper": "", 
        "iso2": "GT", 
        "capital": "minor", 
        "lat": "14.766944", 
        "lng": "-90.994167", 
        "population": ""
    }, 
    {
        "city": "Tectit\u00e1n", 
        "admin": "Huehuetenango", 
        "country": "Guatemala", 
        "population_proper": "", 
        "iso2": "GT", 
        "capital": "minor", 
        "lat": "15.333333", 
        "lng": "-92.033333", 
        "population": ""
    }, 
    {
        "city": "San Jorge", 
        "admin": "Zacapa", 
        "country": "Guatemala", 
        "population_proper": "", 
        "iso2": "GT", 
        "capital": "minor", 
        "lat": "14.933333", 
        "lng": "-89.583333", 
        "population": ""
    }, 
    {
        "city": "Concepci\u00f3n Las Minas", 
        "admin": "Chiquimula", 
        "country": "Guatemala", 
        "population_proper": "", 
        "iso2": "GT", 
        "capital": "minor", 
        "lat": "14.516667", 
        "lng": "-89.45", 
        "population": ""
    }, 
    {
        "city": "San Sebasti\u00e1n Huehuetenango", 
        "admin": "Huehuetenango", 
        "country": "Guatemala", 
        "population_proper": "", 
        "iso2": "GT", 
        "capital": "minor", 
        "lat": "15.387681", 
        "lng": "-91.615299", 
        "population": ""
    }, 
    {
        "city": "Lanqu\u00edn", 
        "admin": "Alta Verapaz", 
        "country": "Guatemala", 
        "population_proper": "", 
        "iso2": "GT", 
        "capital": "minor", 
        "lat": "15.566667", 
        "lng": "-89.966667", 
        "population": ""
    }, 
    {
        "city": "El Rodeo", 
        "admin": "San Marcos", 
        "country": "Guatemala", 
        "population_proper": "", 
        "iso2": "GT", 
        "capital": "minor", 
        "lat": "14.916667", 
        "lng": "-91.966667", 
        "population": ""
    }, 
    {
        "city": "San Jos\u00e9 Chacay\u00e1", 
        "admin": "Solol\u00e1", 
        "country": "Guatemala", 
        "population_proper": "", 
        "iso2": "GT", 
        "capital": "minor", 
        "lat": "14.766667", 
        "lng": "-91.216667", 
        "population": ""
    }, 
    {
        "city": "San Juan Ostuncalco", 
        "admin": "Quetzaltenango", 
        "country": "Guatemala", 
        "population_proper": "", 
        "iso2": "GT", 
        "capital": "minor", 
        "lat": "14.873285", 
        "lng": "-91.689703", 
        "population": ""
    }, 
    {
        "city": "Zunilito", 
        "admin": "Suchitep\u00e9quez", 
        "country": "Guatemala", 
        "population_proper": "", 
        "iso2": "GT", 
        "capital": "minor", 
        "lat": "14.616667", 
        "lng": "-91.516667", 
        "population": ""
    }, 
    {
        "city": "Zunil", 
        "admin": "Quetzaltenango", 
        "country": "Guatemala", 
        "population_proper": "", 
        "iso2": "GT", 
        "capital": "minor", 
        "lat": "14.783333", 
        "lng": "-91.483333", 
        "population": ""
    }, 
    {
        "city": "San Andr\u00e9s Villa Seca", 
        "admin": "Retalhuleu", 
        "country": "Guatemala", 
        "population_proper": "", 
        "iso2": "GT", 
        "capital": "minor", 
        "lat": "14.566667", 
        "lng": "-91.583333", 
        "population": ""
    }, 
    {
        "city": "San Andr\u00e9s Semetabaj", 
        "admin": "Solol\u00e1", 
        "country": "Guatemala", 
        "population_proper": "", 
        "iso2": "GT", 
        "capital": "minor", 
        "lat": "14.75", 
        "lng": "-91.133333", 
        "population": ""
    }, 
    {
        "city": "San Andr\u00e9s Sajcabaj\u00e1", 
        "admin": "Quich\u00e9", 
        "country": "Guatemala", 
        "population_proper": "", 
        "iso2": "GT", 
        "capital": "minor", 
        "lat": "15.216667", 
        "lng": "-90.916667", 
        "population": ""
    }, 
    {
        "city": "San Andr\u00e9s Itzapa", 
        "admin": "Chimaltenango", 
        "country": "Guatemala", 
        "population_proper": "", 
        "iso2": "GT", 
        "capital": "minor", 
        "lat": "14.62", 
        "lng": "-90.844167", 
        "population": ""
    }, 
    {
        "city": "Ixtahuac\u00e1n", 
        "admin": "Huehuetenango", 
        "country": "Guatemala", 
        "population_proper": "", 
        "iso2": "GT", 
        "capital": "minor", 
        "lat": "15.416667", 
        "lng": "-91.766667", 
        "population": ""
    }, 
    {
        "city": "Patulul", 
        "admin": "Suchitep\u00e9quez", 
        "country": "Guatemala", 
        "population_proper": "", 
        "iso2": "GT", 
        "capital": "minor", 
        "lat": "14.416667", 
        "lng": "-91.166667", 
        "population": ""
    }, 
    {
        "city": "El Asintal", 
        "admin": "Retalhuleu", 
        "country": "Guatemala", 
        "population_proper": "", 
        "iso2": "GT", 
        "capital": "minor", 
        "lat": "14.6", 
        "lng": "-91.733333", 
        "population": ""
    }, 
    {
        "city": "Esquipulas Palo Gordo", 
        "admin": "San Marcos", 
        "country": "Guatemala", 
        "population_proper": "", 
        "iso2": "GT", 
        "capital": "minor", 
        "lat": "14.933333", 
        "lng": "-91.816667", 
        "population": ""
    }, 
    {
        "city": "Los Amates", 
        "admin": "Izabal", 
        "country": "Guatemala", 
        "population_proper": "", 
        "iso2": "GT", 
        "capital": "minor", 
        "lat": "15.266667", 
        "lng": "-89.1", 
        "population": ""
    }, 
    {
        "city": "San Bernardino", 
        "admin": "Suchitep\u00e9quez", 
        "country": "Guatemala", 
        "population_proper": "", 
        "iso2": "GT", 
        "capital": "minor", 
        "lat": "14.533333", 
        "lng": "-91.45", 
        "population": ""
    }, 
    {
        "city": "Usumatl\u00e1n", 
        "admin": "Zacapa", 
        "country": "Guatemala", 
        "population_proper": "", 
        "iso2": "GT", 
        "capital": "minor", 
        "lat": "14.95", 
        "lng": "-89.783333", 
        "population": ""
    }, 
    {
        "city": "El Chal", 
        "admin": "Pet\u00e9n", 
        "country": "Guatemala", 
        "population_proper": "", 
        "iso2": "GT", 
        "capital": "minor", 
        "lat": "16.666667", 
        "lng": "-89.633333", 
        "population": ""
    }, 
    {
        "city": "Popt\u00fan", 
        "admin": "Pet\u00e9n", 
        "country": "Guatemala", 
        "population_proper": "", 
        "iso2": "GT", 
        "capital": "minor", 
        "lat": "16.331111", 
        "lng": "-89.416944", 
        "population": ""
    }, 
    {
        "city": "Sansare", 
        "admin": "El Progreso", 
        "country": "Guatemala", 
        "population_proper": "", 
        "iso2": "GT", 
        "capital": "minor", 
        "lat": "14.747222", 
        "lng": "-90.1125", 
        "population": ""
    }, 
    {
        "city": "Casillas", 
        "admin": "Santa Rosa", 
        "country": "Guatemala", 
        "population_proper": "", 
        "iso2": "GT", 
        "capital": "minor", 
        "lat": "14.422222", 
        "lng": "-90.244167", 
        "population": ""
    }, 
    {
        "city": "San Jos\u00e9", 
        "admin": "Pet\u00e9n", 
        "country": "Guatemala", 
        "population_proper": "", 
        "iso2": "GT", 
        "capital": "minor", 
        "lat": "16.983333", 
        "lng": "-89.9", 
        "population": ""
    }, 
    {
        "city": "San Agust\u00edn Acasaguastl\u00e1n", 
        "admin": "El Progreso", 
        "country": "Guatemala", 
        "population_proper": "", 
        "iso2": "GT", 
        "capital": "minor", 
        "lat": "14.95", 
        "lng": "-89.966667", 
        "population": ""
    }, 
    {
        "city": "Jocot\u00e1n", 
        "admin": "Chiquimula", 
        "country": "Guatemala", 
        "population_proper": "", 
        "iso2": "GT", 
        "capital": "minor", 
        "lat": "14.816667", 
        "lng": "-89.383333", 
        "population": ""
    }, 
    {
        "city": "Chiquimulilla", 
        "admin": "Santa Rosa", 
        "country": "Guatemala", 
        "population_proper": "", 
        "iso2": "GT", 
        "capital": "minor", 
        "lat": "14.085833", 
        "lng": "-90.376667", 
        "population": ""
    }, 
    {
        "city": "Santa Ana", 
        "admin": "Pet\u00e9n", 
        "country": "Guatemala", 
        "population_proper": "", 
        "iso2": "GT", 
        "capital": "minor", 
        "lat": "16.8", 
        "lng": "-89.833333", 
        "population": ""
    }, 
    {
        "city": "San Rafael Pie de La Cuesta", 
        "admin": "San Marcos", 
        "country": "Guatemala", 
        "population_proper": "", 
        "iso2": "GT", 
        "capital": "minor", 
        "lat": "14.933333", 
        "lng": "-91.916667", 
        "population": ""
    }, 
    {
        "city": "Ciudad Vieja", 
        "admin": "Sacatep\u00e9quez", 
        "country": "Guatemala", 
        "population_proper": "", 
        "iso2": "GT", 
        "capital": "minor", 
        "lat": "14.526389", 
        "lng": "-90.759722", 
        "population": ""
    }, 
    {
        "city": "Coatepeque", 
        "admin": "Quetzaltenango", 
        "country": "Guatemala", 
        "population_proper": "", 
        "iso2": "GT", 
        "capital": "minor", 
        "lat": "14.7", 
        "lng": "-91.866667", 
        "population": ""
    }, 
    {
        "city": "Jerez", 
        "admin": "Jutiapa", 
        "country": "Guatemala", 
        "population_proper": "", 
        "iso2": "GT", 
        "capital": "minor", 
        "lat": "14.1", 
        "lng": "-89.75", 
        "population": ""
    }, 
    {
        "city": "Taxisco", 
        "admin": "Santa Rosa", 
        "country": "Guatemala", 
        "population_proper": "", 
        "iso2": "GT", 
        "capital": "minor", 
        "lat": "14.070833", 
        "lng": "-90.463056", 
        "population": ""
    }, 
    {
        "city": "San Jos\u00e9 La M\u00e1quina", 
        "admin": "Suchitep\u00e9quez", 
        "country": "Guatemala", 
        "population_proper": "", 
        "iso2": "GT", 
        "capital": "minor", 
        "lat": "14.301781", 
        "lng": "-91.567068", 
        "population": ""
    }, 
    {
        "city": "Pajapita", 
        "admin": "San Marcos", 
        "country": "Guatemala", 
        "population_proper": "", 
        "iso2": "GT", 
        "capital": "minor", 
        "lat": "14.72152", 
        "lng": "-92.035211", 
        "population": ""
    }, 
    {
        "city": "Ostuncalco", 
        "admin": "Quetzaltenango", 
        "country": "Guatemala", 
        "population_proper": "", 
        "iso2": "GT", 
        "capital": "minor", 
        "lat": "14.866667", 
        "lng": "-91.616667", 
        "population": ""
    }, 
    {
        "city": "Uni\u00f3n", 
        "admin": "Huehuetenango", 
        "country": "Guatemala", 
        "population_proper": "", 
        "iso2": "GT", 
        "capital": "minor", 
        "lat": "15.920513", 
        "lng": "-91.77621", 
        "population": ""
    }, 
    {
        "city": "Almolonga", 
        "admin": "Quetzaltenango", 
        "country": "Guatemala", 
        "population_proper": "", 
        "iso2": "GT", 
        "capital": "minor", 
        "lat": "14.816667", 
        "lng": "-91.5", 
        "population": ""
    }, 
    {
        "city": "Alotenango", 
        "admin": "Sacatep\u00e9quez", 
        "country": "Guatemala", 
        "population_proper": "", 
        "iso2": "GT", 
        "capital": "minor", 
        "lat": "14.480278", 
        "lng": "-90.8075", 
        "population": ""
    }, 
    {
        "city": "Samayac", 
        "admin": "Suchitep\u00e9quez", 
        "country": "Guatemala", 
        "population_proper": "", 
        "iso2": "GT", 
        "capital": "minor", 
        "lat": "14.583333", 
        "lng": "-91.466667", 
        "population": ""
    }, 
    {
        "city": "Gual\u00e1n", 
        "admin": "Zacapa", 
        "country": "Guatemala", 
        "population_proper": "", 
        "iso2": "GT", 
        "capital": "minor", 
        "lat": "15.133333", 
        "lng": "-89.366667", 
        "population": ""
    }, 
    {
        "city": "Guanagazapa", 
        "admin": "Escuintla", 
        "country": "Guatemala", 
        "population_proper": "", 
        "iso2": "GT", 
        "capital": "minor", 
        "lat": "14.225278", 
        "lng": "-90.643333", 
        "population": ""
    }, 
    {
        "city": "Parramos", 
        "admin": "Chimaltenango", 
        "country": "Guatemala", 
        "population_proper": "", 
        "iso2": "GT", 
        "capital": "minor", 
        "lat": "14.607778", 
        "lng": "-90.803056", 
        "population": ""
    }, 
    {
        "city": "El Chol", 
        "admin": "Baja Verapaz", 
        "country": "Guatemala", 
        "population_proper": "", 
        "iso2": "GT", 
        "capital": "minor", 
        "lat": "14.964167", 
        "lng": "-90.480556", 
        "population": ""
    }, 
    {
        "city": "Sibilia", 
        "admin": "Quetzaltenango", 
        "country": "Guatemala", 
        "population_proper": "", 
        "iso2": "GT", 
        "capital": "minor", 
        "lat": "15.0", 
        "lng": "-91.616667", 
        "population": ""
    }, 
    {
        "city": "Sibinal", 
        "admin": "San Marcos", 
        "country": "Guatemala", 
        "population_proper": "", 
        "iso2": "GT", 
        "capital": "minor", 
        "lat": "15.149629", 
        "lng": "-92.048917", 
        "population": ""
    }, 
    {
        "city": "San Francisco La Uni\u00f3n", 
        "admin": "Quetzaltenango", 
        "country": "Guatemala", 
        "population_proper": "", 
        "iso2": "GT", 
        "capital": "minor", 
        "lat": "14.916667", 
        "lng": "-91.533333", 
        "population": ""
    }, 
    {
        "city": "San Francisco El Alto", 
        "admin": "Totonicap\u00e1n", 
        "country": "Guatemala", 
        "population_proper": "", 
        "iso2": "GT", 
        "capital": "minor", 
        "lat": "14.95", 
        "lng": "-91.45", 
        "population": ""
    }, 
    {
        "city": "San Jos\u00e9 Poaquil", 
        "admin": "Chimaltenango", 
        "country": "Guatemala", 
        "population_proper": "", 
        "iso2": "GT", 
        "capital": "minor", 
        "lat": "14.819722", 
        "lng": "-90.906389", 
        "population": ""
    }, 
    {
        "city": "San Jos\u00e9 Pinula", 
        "admin": "Guatemala", 
        "country": "Guatemala", 
        "population_proper": "", 
        "iso2": "GT", 
        "capital": "minor", 
        "lat": "14.546111", 
        "lng": "-90.411389", 
        "population": ""
    }, 
    {
        "city": "Yupiltepeque", 
        "admin": "Jutiapa", 
        "country": "Guatemala", 
        "population_proper": "", 
        "iso2": "GT", 
        "capital": "minor", 
        "lat": "14.2", 
        "lng": "-89.783333", 
        "population": ""
    }, 
    {
        "city": "San Miguel Acat\u00e1n", 
        "admin": "Huehuetenango", 
        "country": "Guatemala", 
        "population_proper": "", 
        "iso2": "GT", 
        "capital": "minor", 
        "lat": "15.7", 
        "lng": "-91.616667", 
        "population": ""
    }, 
    {
        "city": "San Jos\u00e9 Ojetenam", 
        "admin": "San Marcos", 
        "country": "Guatemala", 
        "population_proper": "", 
        "iso2": "GT", 
        "capital": "minor", 
        "lat": "15.216667", 
        "lng": "-91.966667", 
        "population": ""
    }, 
    {
        "city": "San Juan Chamelco", 
        "admin": "Alta Verapaz", 
        "country": "Guatemala", 
        "population_proper": "", 
        "iso2": "GT", 
        "capital": "minor", 
        "lat": "15.433333", 
        "lng": "-90.333333", 
        "population": ""
    }, 
    {
        "city": "Ciudad Melchor de Mencos", 
        "admin": "Pet\u00e9n", 
        "country": "Guatemala", 
        "population_proper": "", 
        "iso2": "GT", 
        "capital": "minor", 
        "lat": "17.068611", 
        "lng": "-89.152222", 
        "population": ""
    }, 
    {
        "city": "Yepocapa", 
        "admin": "Chimaltenango", 
        "country": "Guatemala", 
        "population_proper": "", 
        "iso2": "GT", 
        "capital": "minor", 
        "lat": "14.504167", 
        "lng": "-90.956944", 
        "population": ""
    }, 
    {
        "city": "Fray Bartolom\u00e9 de Las Casas", 
        "admin": "Alta Verapaz", 
        "country": "Guatemala", 
        "population_proper": "", 
        "iso2": "GT", 
        "capital": "minor", 
        "lat": "15.815155", 
        "lng": "-89.889314", 
        "population": ""
    }, 
    {
        "city": "Esquipulas", 
        "admin": "Chiquimula", 
        "country": "Guatemala", 
        "population_proper": "", 
        "iso2": "GT", 
        "capital": "minor", 
        "lat": "14.566667", 
        "lng": "-89.35", 
        "population": ""
    }, 
    {
        "city": "Guazacap\u00e1n", 
        "admin": "Santa Rosa", 
        "country": "Guatemala", 
        "population_proper": "", 
        "iso2": "GT", 
        "capital": "minor", 
        "lat": "14.074167", 
        "lng": "-90.416667", 
        "population": ""
    }, 
    {
        "city": "G\u00e9nova", 
        "admin": "Quetzaltenango", 
        "country": "Guatemala", 
        "population_proper": "", 
        "iso2": "GT", 
        "capital": "minor", 
        "lat": "14.616667", 
        "lng": "-91.833333", 
        "population": ""
    }, 
    {
        "city": "Colomba", 
        "admin": "Quetzaltenango", 
        "country": "Guatemala", 
        "population_proper": "", 
        "iso2": "GT", 
        "capital": "minor", 
        "lat": "14.716667", 
        "lng": "-91.733333", 
        "population": ""
    }, 
    {
        "city": "Tamah\u00fa", 
        "admin": "Alta Verapaz", 
        "country": "Guatemala", 
        "population_proper": "", 
        "iso2": "GT", 
        "capital": "minor", 
        "lat": "15.333333", 
        "lng": "-90.166667", 
        "population": ""
    }, 
    {
        "city": "San Vicente Pacaya", 
        "admin": "Escuintla", 
        "country": "Guatemala", 
        "population_proper": "", 
        "iso2": "GT", 
        "capital": "minor", 
        "lat": "14.416111", 
        "lng": "-90.639167", 
        "population": ""
    }, 
    {
        "city": "San Miguel Ixtahuac\u00e1n", 
        "admin": "San Marcos", 
        "country": "Guatemala", 
        "population_proper": "", 
        "iso2": "GT", 
        "capital": "minor", 
        "lat": "15.272465", 
        "lng": "-91.74785", 
        "population": ""
    }, 
    {
        "city": "Quesada", 
        "admin": "Jutiapa", 
        "country": "Guatemala", 
        "population_proper": "", 
        "iso2": "GT", 
        "capital": "minor", 
        "lat": "14.270278", 
        "lng": "-90.040278", 
        "population": ""
    }, 
    {
        "city": "Catarina", 
        "admin": "San Marcos", 
        "country": "Guatemala", 
        "population_proper": "", 
        "iso2": "GT", 
        "capital": "minor", 
        "lat": "14.851525", 
        "lng": "-92.076473", 
        "population": ""
    }, 
    {
        "city": "La Democracia", 
        "admin": "Huehuetenango", 
        "country": "Guatemala", 
        "population_proper": "", 
        "iso2": "GT", 
        "capital": "minor", 
        "lat": "15.625444", 
        "lng": "-91.8867", 
        "population": ""
    }, 
    {
        "city": "La Democracia", 
        "admin": "Escuintla", 
        "country": "Guatemala", 
        "population_proper": "", 
        "iso2": "GT", 
        "capital": "minor", 
        "lat": "14.230833", 
        "lng": "-90.947222", 
        "population": ""
    }, 
    {
        "city": "Santa B\u00e1rbara", 
        "admin": "Huehuetenango", 
        "country": "Guatemala", 
        "population_proper": "", 
        "iso2": "GT", 
        "capital": "minor", 
        "lat": "15.316167", 
        "lng": "-91.632792", 
        "population": ""
    }, 
    {
        "city": "Malacat\u00e1n", 
        "admin": "San Marcos", 
        "country": "Guatemala", 
        "population_proper": "", 
        "iso2": "GT", 
        "capital": "minor", 
        "lat": "14.910654", 
        "lng": "-92.057947", 
        "population": ""
    }, 
    {
        "city": "Santa Mar\u00eda Ixhuat\u00e1n", 
        "admin": "Santa Rosa", 
        "country": "Guatemala", 
        "population_proper": "", 
        "iso2": "GT", 
        "capital": "minor", 
        "lat": "14.19", 
        "lng": "-90.274722", 
        "population": ""
    }, 
    {
        "city": "Santa Mar\u00eda Visitaci\u00f3n", 
        "admin": "Solol\u00e1", 
        "country": "Guatemala", 
        "population_proper": "", 
        "iso2": "GT", 
        "capital": "minor", 
        "lat": "14.716667", 
        "lng": "-91.316667", 
        "population": ""
    }, 
    {
        "city": "Olopa", 
        "admin": "Chiquimula", 
        "country": "Guatemala", 
        "population_proper": "", 
        "iso2": "GT", 
        "capital": "minor", 
        "lat": "14.683333", 
        "lng": "-89.35", 
        "population": ""
    }, 
    {
        "city": "Moraz\u00e1n", 
        "admin": "El Progreso", 
        "country": "Guatemala", 
        "population_proper": "", 
        "iso2": "GT", 
        "capital": "minor", 
        "lat": "14.932778", 
        "lng": "-90.143056", 
        "population": ""
    }, 
    {
        "city": "Pueblo Nuevo", 
        "admin": "Suchitep\u00e9quez", 
        "country": "Guatemala", 
        "population_proper": "", 
        "iso2": "GT", 
        "capital": "minor", 
        "lat": "14.65", 
        "lng": "-91.533333", 
        "population": ""
    }, 
    {
        "city": "San Crist\u00f3bal Acasaguastl\u00e1n", 
        "admin": "El Progreso", 
        "country": "Guatemala", 
        "population_proper": "", 
        "iso2": "GT", 
        "capital": "minor", 
        "lat": "14.916667", 
        "lng": "-89.883333", 
        "population": ""
    }, 
    {
        "city": "San Crist\u00f3bal Cucho", 
        "admin": "San Marcos", 
        "country": "Guatemala", 
        "population_proper": "", 
        "iso2": "GT", 
        "capital": "minor", 
        "lat": "14.9", 
        "lng": "-91.783333", 
        "population": ""
    }, 
    {
        "city": "Tucur\u00fa", 
        "admin": "Alta Verapaz", 
        "country": "Guatemala", 
        "population_proper": "", 
        "iso2": "GT", 
        "capital": "minor", 
        "lat": "15.3", 
        "lng": "-90.066667", 
        "population": ""
    }, 
    {
        "city": "Aguacat\u00e1n", 
        "admin": "Huehuetenango", 
        "country": "Guatemala", 
        "population_proper": "", 
        "iso2": "GT", 
        "capital": "minor", 
        "lat": "15.343056", 
        "lng": "-91.311667", 
        "population": ""
    }, 
    {
        "city": "San Mart\u00edn Zapotitl\u00e1n", 
        "admin": "Retalhuleu", 
        "country": "Guatemala", 
        "population_proper": "", 
        "iso2": "GT", 
        "capital": "minor", 
        "lat": "14.6", 
        "lng": "-91.6", 
        "population": ""
    }, 
    {
        "city": "San Mateo", 
        "admin": "Quetzaltenango", 
        "country": "Guatemala", 
        "population_proper": "", 
        "iso2": "GT", 
        "capital": "minor", 
        "lat": "14.866667", 
        "lng": "-91.583333", 
        "population": ""
    }, 
    {
        "city": "San Mart\u00edn Jilotepeque", 
        "admin": "Chimaltenango", 
        "country": "Guatemala", 
        "population_proper": "", 
        "iso2": "GT", 
        "capital": "minor", 
        "lat": "14.787778", 
        "lng": "-90.7925", 
        "population": ""
    }, 
    {
        "city": "Santa Catarina Pinula", 
        "admin": "Guatemala", 
        "country": "Guatemala", 
        "population_proper": "", 
        "iso2": "GT", 
        "capital": "minor", 
        "lat": "14.568889", 
        "lng": "-90.495278", 
        "population": ""
    }, 
    {
        "city": "San Juan Cotzal", 
        "admin": "Quich\u00e9", 
        "country": "Guatemala", 
        "population_proper": "", 
        "iso2": "GT", 
        "capital": "minor", 
        "lat": "15.434167", 
        "lng": "-91.034167", 
        "population": ""
    }, 
    {
        "city": "El Tumbador", 
        "admin": "San Marcos", 
        "country": "Guatemala", 
        "population_proper": "", 
        "iso2": "GT", 
        "capital": "minor", 
        "lat": "14.866667", 
        "lng": "-91.933333", 
        "population": ""
    }, 
    {
        "city": "Palestina de los Altos", 
        "admin": "Quetzaltenango", 
        "country": "Guatemala", 
        "population_proper": "", 
        "iso2": "GT", 
        "capital": "minor", 
        "lat": "14.933333", 
        "lng": "-91.7", 
        "population": ""
    }, 
    {
        "city": "Pal\u00edn", 
        "admin": "Escuintla", 
        "country": "Guatemala", 
        "population_proper": "", 
        "iso2": "GT", 
        "capital": "minor", 
        "lat": "14.405556", 
        "lng": "-90.698333", 
        "population": ""
    }, 
    {
        "city": "Nebaj", 
        "admin": "Quich\u00e9", 
        "country": "Guatemala", 
        "population_proper": "", 
        "iso2": "GT", 
        "capital": "minor", 
        "lat": "15.405833", 
        "lng": "-91.146111", 
        "population": ""
    }, 
    {
        "city": "San Carlos Sija", 
        "admin": "Quetzaltenango", 
        "country": "Guatemala", 
        "population_proper": "", 
        "iso2": "GT", 
        "capital": "minor", 
        "lat": "14.983333", 
        "lng": "-91.55", 
        "population": ""
    }, 
    {
        "city": "Guastatoya", 
        "admin": "El Progreso", 
        "country": "Guatemala", 
        "population_proper": "", 
        "iso2": "GT", 
        "capital": "admin", 
        "lat": "14.854167", 
        "lng": "-90.069444", 
        "population": ""
    }, 
    {
        "city": "El Progreso", 
        "admin": "Jutiapa", 
        "country": "Guatemala", 
        "population_proper": "", 
        "iso2": "GT", 
        "capital": "minor", 
        "lat": "14.35", 
        "lng": "-89.85", 
        "population": ""
    }, 
    {
        "city": "Santo Domingo Suchitep\u00e9quez", 
        "admin": "Suchitep\u00e9quez", 
        "country": "Guatemala", 
        "population_proper": "", 
        "iso2": "GT", 
        "capital": "minor", 
        "lat": "14.466667", 
        "lng": "-91.483333", 
        "population": ""
    }, 
    {
        "city": "San Andr\u00e9s Xecul", 
        "admin": "Totonicap\u00e1n", 
        "country": "Guatemala", 
        "population_proper": "", 
        "iso2": "GT", 
        "capital": "minor", 
        "lat": "14.9", 
        "lng": "-91.483333", 
        "population": ""
    }, 
    {
        "city": "Atescatempa", 
        "admin": "Jutiapa", 
        "country": "Guatemala", 
        "population_proper": "", 
        "iso2": "GT", 
        "capital": "minor", 
        "lat": "14.174444", 
        "lng": "-89.7425", 
        "population": ""
    }, 
    {
        "city": "Zapotitl\u00e1n", 
        "admin": "Jutiapa", 
        "country": "Guatemala", 
        "population_proper": "", 
        "iso2": "GT", 
        "capital": "minor", 
        "lat": "14.133333", 
        "lng": "-89.833333", 
        "population": ""
    }, 
    {
        "city": "Concepci\u00f3n Chiquirichapa", 
        "admin": "Quetzaltenango", 
        "country": "Guatemala", 
        "population_proper": "", 
        "iso2": "GT", 
        "capital": "minor", 
        "lat": "14.85", 
        "lng": "-91.616667", 
        "population": ""
    }, 
    {
        "city": "Sacapulas", 
        "admin": "Quich\u00e9", 
        "country": "Guatemala", 
        "population_proper": "", 
        "iso2": "GT", 
        "capital": "minor", 
        "lat": "15.286667", 
        "lng": "-91.087222", 
        "population": ""
    }, 
    {
        "city": "San Juan La Laguna", 
        "admin": "Solol\u00e1", 
        "country": "Guatemala", 
        "population_proper": "", 
        "iso2": "GT", 
        "capital": "minor", 
        "lat": "14.7", 
        "lng": "-91.283333", 
        "population": ""
    }, 
    {
        "city": "San Juan Ixcoy", 
        "admin": "Huehuetenango", 
        "country": "Guatemala", 
        "population_proper": "", 
        "iso2": "GT", 
        "capital": "minor", 
        "lat": "15.599722", 
        "lng": "-91.445278", 
        "population": ""
    }, 
    {
        "city": "Tajumulco", 
        "admin": "San Marcos", 
        "country": "Guatemala", 
        "population_proper": "", 
        "iso2": "GT", 
        "capital": "minor", 
        "lat": "15.083333", 
        "lng": "-91.883333", 
        "population": ""
    }, 
    {
        "city": "Fraijanes", 
        "admin": "Guatemala", 
        "country": "Guatemala", 
        "population_proper": "", 
        "iso2": "GT", 
        "capital": "minor", 
        "lat": "14.465278", 
        "lng": "-90.440833", 
        "population": ""
    }, 
    {
        "city": "La Gomera", 
        "admin": "Escuintla", 
        "country": "Guatemala", 
        "population_proper": "", 
        "iso2": "GT", 
        "capital": "minor", 
        "lat": "14.083333", 
        "lng": "-91.05", 
        "population": ""
    }, 
    {
        "city": "Petapa", 
        "admin": "Guatemala", 
        "country": "Guatemala", 
        "population_proper": "", 
        "iso2": "GT", 
        "capital": "minor", 
        "lat": "14.502778", 
        "lng": "-90.551667", 
        "population": ""
    }, 
    {
        "city": "Santa Luc\u00eda La Reforma", 
        "admin": "Totonicap\u00e1n", 
        "country": "Guatemala", 
        "population_proper": "", 
        "iso2": "GT", 
        "capital": "minor", 
        "lat": "15.128333", 
        "lng": "-91.235556", 
        "population": ""
    }, 
    {
        "city": "Santa Luc\u00eda Milpas Altas", 
        "admin": "Sacatep\u00e9quez", 
        "country": "Guatemala", 
        "population_proper": "", 
        "iso2": "GT", 
        "capital": "minor", 
        "lat": "14.575833", 
        "lng": "-90.678611", 
        "population": ""
    }, 
    {
        "city": "Santa Luc\u00eda Cotzumalguapa", 
        "admin": "Escuintla", 
        "country": "Guatemala", 
        "population_proper": "", 
        "iso2": "GT", 
        "capital": "minor", 
        "lat": "14.333333", 
        "lng": "-91.016667", 
        "population": ""
    }, 
    {
        "city": "Santo Tom\u00e1s La Uni\u00f3n", 
        "admin": "Suchitep\u00e9quez", 
        "country": "Guatemala", 
        "population_proper": "", 
        "iso2": "GT", 
        "capital": "minor", 
        "lat": "14.633333", 
        "lng": "-91.383333", 
        "population": ""
    }, 
    {
        "city": "Sanarate", 
        "admin": "El Progreso", 
        "country": "Guatemala", 
        "population_proper": "", 
        "iso2": "GT", 
        "capital": "minor", 
        "lat": "14.795", 
        "lng": "-90.192222", 
        "population": ""
    }, 
    {
        "city": "Santa Cruz Balany\u00e1", 
        "admin": "Chimaltenango", 
        "country": "Guatemala", 
        "population_proper": "", 
        "iso2": "GT", 
        "capital": "minor", 
        "lat": "14.687222", 
        "lng": "-90.915", 
        "population": ""
    }, 
    {
        "city": "Canill\u00e1", 
        "admin": "Quich\u00e9", 
        "country": "Guatemala", 
        "population_proper": "", 
        "iso2": "GT", 
        "capital": "minor", 
        "lat": "15.166667", 
        "lng": "-90.85", 
        "population": ""
    }, 
    {
        "city": "Champerico", 
        "admin": "Retalhuleu", 
        "country": "Guatemala", 
        "population_proper": "", 
        "iso2": "GT", 
        "capital": "minor", 
        "lat": "14.3", 
        "lng": "-91.916667", 
        "population": ""
    }, 
    {
        "city": "Joyabaj", 
        "admin": "Quich\u00e9", 
        "country": "Guatemala", 
        "population_proper": "", 
        "iso2": "GT", 
        "capital": "minor", 
        "lat": "14.995", 
        "lng": "-90.806111", 
        "population": ""
    }, 
    {
        "city": "Comalapa", 
        "admin": "Chimaltenango", 
        "country": "Guatemala", 
        "population_proper": "", 
        "iso2": "GT", 
        "capital": "minor", 
        "lat": "14.741111", 
        "lng": "-90.8875", 
        "population": ""
    }, 
    {
        "city": "San Antonio Suchitep\u00e9quez", 
        "admin": "Suchitep\u00e9quez", 
        "country": "Guatemala", 
        "population_proper": "", 
        "iso2": "GT", 
        "capital": "minor", 
        "lat": "14.533333", 
        "lng": "-91.416667", 
        "population": ""
    }, 
    {
        "city": "San Antonio Sacatep\u00e9quez", 
        "admin": "San Marcos", 
        "country": "Guatemala", 
        "population_proper": "", 
        "iso2": "GT", 
        "capital": "minor", 
        "lat": "14.966667", 
        "lng": "-91.733333", 
        "population": ""
    }, 
    {
        "city": "San Manuel Chaparr\u00f3n", 
        "admin": "Jalapa", 
        "country": "Guatemala", 
        "population_proper": "", 
        "iso2": "GT", 
        "capital": "minor", 
        "lat": "14.516667", 
        "lng": "-89.766667", 
        "population": ""
    }, 
    {
        "city": "Senah\u00fa", 
        "admin": "Alta Verapaz", 
        "country": "Guatemala", 
        "population_proper": "", 
        "iso2": "GT", 
        "capital": "minor", 
        "lat": "15.4", 
        "lng": "-89.833333", 
        "population": ""
    }, 
    {
        "city": "R\u00edo Bravo", 
        "admin": "Suchitep\u00e9quez", 
        "country": "Guatemala", 
        "population_proper": "", 
        "iso2": "GT", 
        "capital": "minor", 
        "lat": "14.4", 
        "lng": "-91.316667", 
        "population": ""
    }, 
    {
        "city": "Comapa", 
        "admin": "Jutiapa", 
        "country": "Guatemala", 
        "population_proper": "", 
        "iso2": "GT", 
        "capital": "minor", 
        "lat": "14.116667", 
        "lng": "-89.916667", 
        "population": ""
    }, 
    {
        "city": "San Gaspar Ixchil", 
        "admin": "Huehuetenango", 
        "country": "Guatemala", 
        "population_proper": "", 
        "iso2": "GT", 
        "capital": "minor", 
        "lat": "15.387963", 
        "lng": "-91.725644", 
        "population": ""
    }, 
    {
        "city": "San Benito", 
        "admin": "Pet\u00e9n", 
        "country": "Guatemala", 
        "population_proper": "", 
        "iso2": "GT", 
        "capital": "minor", 
        "lat": "16.916667", 
        "lng": "-89.9", 
        "population": ""
    }, 
    {
        "city": "San Rafael La Independencia", 
        "admin": "Huehuetenango", 
        "country": "Guatemala", 
        "population_proper": "", 
        "iso2": "GT", 
        "capital": "minor", 
        "lat": "15.716667", 
        "lng": "-91.533333", 
        "population": ""
    }, 
    {
        "city": "San Antonio Aguas Calientes", 
        "admin": "Sacatep\u00e9quez", 
        "country": "Guatemala", 
        "population_proper": "", 
        "iso2": "GT", 
        "capital": "minor", 
        "lat": "14.539722", 
        "lng": "-90.769444", 
        "population": ""
    }, 
    {
        "city": "San Juan Tecuaco", 
        "admin": "Santa Rosa", 
        "country": "Guatemala", 
        "population_proper": "", 
        "iso2": "GT", 
        "capital": "minor", 
        "lat": "14.082222", 
        "lng": "-90.261111", 
        "population": ""
    }, 
    {
        "city": "Cuilco", 
        "admin": "Huehuetenango", 
        "country": "Guatemala", 
        "population_proper": "", 
        "iso2": "GT", 
        "capital": "minor", 
        "lat": "15.4", 
        "lng": "-91.966667", 
        "population": ""
    }, 
    {
        "city": "Chinique", 
        "admin": "Quich\u00e9", 
        "country": "Guatemala", 
        "population_proper": "", 
        "iso2": "GT", 
        "capital": "minor", 
        "lat": "15.044722", 
        "lng": "-91.025833", 
        "population": ""
    }, 
    {
        "city": "Chicam\u00e1n", 
        "admin": "Quich\u00e9", 
        "country": "Guatemala", 
        "population_proper": "", 
        "iso2": "GT", 
        "capital": "minor", 
        "lat": "15.4", 
        "lng": "-90.766667", 
        "population": ""
    }, 
    {
        "city": "R\u00edo Hondo", 
        "admin": "Zacapa", 
        "country": "Guatemala", 
        "population_proper": "", 
        "iso2": "GT", 
        "capital": "minor", 
        "lat": "15.066667", 
        "lng": "-89.583333", 
        "population": ""
    }, 
    {
        "city": "El Quetzal", 
        "admin": "San Marcos", 
        "country": "Guatemala", 
        "population_proper": "", 
        "iso2": "GT", 
        "capital": "minor", 
        "lat": "14.766667", 
        "lng": "-91.816667", 
        "population": ""
    }, 
    {
        "city": "San Antonio Huista", 
        "admin": "Huehuetenango", 
        "country": "Guatemala", 
        "population_proper": "", 
        "iso2": "GT", 
        "capital": "minor", 
        "lat": "15.650098", 
        "lng": "-91.771628", 
        "population": ""
    }, 
    {
        "city": "San Pedro La Laguna", 
        "admin": "Solol\u00e1", 
        "country": "Guatemala", 
        "population_proper": "", 
        "iso2": "GT", 
        "capital": "minor", 
        "lat": "14.683333", 
        "lng": "-91.266667", 
        "population": ""
    }, 
    {
        "city": "Concepci\u00f3n Tutuapa", 
        "admin": "San Marcos", 
        "country": "Guatemala", 
        "population_proper": "", 
        "iso2": "GT", 
        "capital": "minor", 
        "lat": "15.283333", 
        "lng": "-91.783333", 
        "population": ""
    }, 
    {
        "city": "San Lucas Sacatep\u00e9quez", 
        "admin": "Sacatep\u00e9quez", 
        "country": "Guatemala", 
        "population_proper": "", 
        "iso2": "GT", 
        "capital": "minor", 
        "lat": "14.609722", 
        "lng": "-90.656944", 
        "population": ""
    }, 
    {
        "city": "Mataquescuintla", 
        "admin": "Jalapa", 
        "country": "Guatemala", 
        "population_proper": "", 
        "iso2": "GT", 
        "capital": "minor", 
        "lat": "14.529167", 
        "lng": "-90.184167", 
        "population": ""
    }, 
    {
        "city": "Masagua", 
        "admin": "Escuintla", 
        "country": "Guatemala", 
        "population_proper": "", 
        "iso2": "GT", 
        "capital": "minor", 
        "lat": "14.203056", 
        "lng": "-90.848056", 
        "population": ""
    }, 
    {
        "city": "Chiantla", 
        "admin": "Huehuetenango", 
        "country": "Guatemala", 
        "population_proper": "", 
        "iso2": "GT", 
        "capital": "minor", 
        "lat": "15.354722", 
        "lng": "-91.458333", 
        "population": ""
    }, 
    {
        "city": "Tejutla", 
        "admin": "San Marcos", 
        "country": "Guatemala", 
        "population_proper": "", 
        "iso2": "GT", 
        "capital": "minor", 
        "lat": "15.116667", 
        "lng": "-91.8", 
        "population": ""
    }, 
    {
        "city": "Teculut\u00e1n", 
        "admin": "Zacapa", 
        "country": "Guatemala", 
        "population_proper": "", 
        "iso2": "GT", 
        "capital": "minor", 
        "lat": "14.983333", 
        "lng": "-89.716667", 
        "population": ""
    }, 
    {
        "city": "San Jer\u00f3nimo", 
        "admin": "Baja Verapaz", 
        "country": "Guatemala", 
        "population_proper": "", 
        "iso2": "GT", 
        "capital": "minor", 
        "lat": "15.05", 
        "lng": "-90.2", 
        "population": ""
    }, 
    {
        "city": "Cajol\u00e1", 
        "admin": "Quetzaltenango", 
        "country": "Guatemala", 
        "population_proper": "", 
        "iso2": "GT", 
        "capital": "minor", 
        "lat": "14.916667", 
        "lng": "-91.616667", 
        "population": ""
    }, 
    {
        "city": "Panajachel", 
        "admin": "Solol\u00e1", 
        "country": "Guatemala", 
        "population_proper": "", 
        "iso2": "GT", 
        "capital": "minor", 
        "lat": "14.733333", 
        "lng": "-91.15", 
        "population": ""
    }, 
    {
        "city": "Comitancillo", 
        "admin": "San Marcos", 
        "country": "Guatemala", 
        "population_proper": "", 
        "iso2": "GT", 
        "capital": "minor", 
        "lat": "15.089367", 
        "lng": "-91.749706", 
        "population": ""
    }, 
    {
        "city": "Barillas", 
        "admin": "Huehuetenango", 
        "country": "Guatemala", 
        "population_proper": "", 
        "iso2": "GT", 
        "capital": "minor", 
        "lat": "15.803611", 
        "lng": "-91.315833", 
        "population": ""
    }, 
    {
        "city": "El Palmar", 
        "admin": "Quetzaltenango", 
        "country": "Guatemala", 
        "population_proper": "", 
        "iso2": "GT", 
        "capital": "minor", 
        "lat": "14.65", 
        "lng": "-91.583333", 
        "population": ""
    }, 
    {
        "city": "Pueblo Nuevo Tiquisate", 
        "admin": "Escuintla", 
        "country": "Guatemala", 
        "population_proper": "", 
        "iso2": "GT", 
        "capital": "minor", 
        "lat": "14.283333", 
        "lng": "-91.366667", 
        "population": ""
    }, 
    {
        "city": "Chuarrancho", 
        "admin": "Guatemala", 
        "country": "Guatemala", 
        "population_proper": "", 
        "iso2": "GT", 
        "capital": "minor", 
        "lat": "14.821667", 
        "lng": "-90.508611", 
        "population": ""
    }, 
    {
        "city": "San Felipe", 
        "admin": "Retalhuleu", 
        "country": "Guatemala", 
        "population_proper": "", 
        "iso2": "GT", 
        "capital": "minor", 
        "lat": "14.616667", 
        "lng": "-91.6", 
        "population": ""
    }, 
    {
        "city": "Sayaxch\u00e9", 
        "admin": "Pet\u00e9n", 
        "country": "Guatemala", 
        "population_proper": "", 
        "iso2": "GT", 
        "capital": "minor", 
        "lat": "16.516667", 
        "lng": "-90.166667", 
        "population": ""
    }, 
    {
        "city": "Patz\u00fan", 
        "admin": "Chimaltenango", 
        "country": "Guatemala", 
        "population_proper": "", 
        "iso2": "GT", 
        "capital": "minor", 
        "lat": "14.683333", 
        "lng": "-91.016667", 
        "population": ""
    }, 
    {
        "city": "Santa Rosa de Lima", 
        "admin": "Santa Rosa", 
        "country": "Guatemala", 
        "population_proper": "", 
        "iso2": "GT", 
        "capital": "minor", 
        "lat": "14.388056", 
        "lng": "-90.295556", 
        "population": ""
    }, 
    {
        "city": "Sumpango", 
        "admin": "Sacatep\u00e9quez", 
        "country": "Guatemala", 
        "population_proper": "", 
        "iso2": "GT", 
        "capital": "minor", 
        "lat": "14.646389", 
        "lng": "-90.733889", 
        "population": ""
    }, 
    {
        "city": "San Pablo", 
        "admin": "San Marcos", 
        "country": "Guatemala", 
        "population_proper": "", 
        "iso2": "GT", 
        "capital": "minor", 
        "lat": "14.931535", 
        "lng": "-92.003918", 
        "population": ""
    }, 
    {
        "city": "San Pablo Jocopilas", 
        "admin": "Suchitep\u00e9quez", 
        "country": "Guatemala", 
        "population_proper": "", 
        "iso2": "GT", 
        "capital": "minor", 
        "lat": "14.583333", 
        "lng": "-91.45", 
        "population": ""
    }, 
    {
        "city": "Todos Santos Cuchumat\u00e1n", 
        "admin": "Huehuetenango", 
        "country": "Guatemala", 
        "population_proper": "", 
        "iso2": "GT", 
        "capital": "minor", 
        "lat": "15.516667", 
        "lng": "-91.616667", 
        "population": ""
    }, 
    {
        "city": "Jocotenango", 
        "admin": "Sacatep\u00e9quez", 
        "country": "Guatemala", 
        "population_proper": "", 
        "iso2": "GT", 
        "capital": "minor", 
        "lat": "14.581944", 
        "lng": "-90.743611", 
        "population": ""
    }, 
    {
        "city": "Olintepeque", 
        "admin": "Quetzaltenango", 
        "country": "Guatemala", 
        "population_proper": "", 
        "iso2": "GT", 
        "capital": "minor", 
        "lat": "14.883333", 
        "lng": "-91.516667", 
        "population": ""
    }, 
    {
        "city": "Soloma", 
        "admin": "Huehuetenango", 
        "country": "Guatemala", 
        "population_proper": "", 
        "iso2": "GT", 
        "capital": "minor", 
        "lat": "15.716667", 
        "lng": "-91.45", 
        "population": ""
    }, 
    {
        "city": "Uspant\u00e1n", 
        "admin": "Quich\u00e9", 
        "country": "Guatemala", 
        "population_proper": "", 
        "iso2": "GT", 
        "capital": "minor", 
        "lat": "15.383333", 
        "lng": "-90.833333", 
        "population": ""
    }, 
    {
        "city": "Caba\u00f1as", 
        "admin": "Zacapa", 
        "country": "Guatemala", 
        "population_proper": "", 
        "iso2": "GT", 
        "capital": "minor", 
        "lat": "14.933333", 
        "lng": "-89.8", 
        "population": ""
    }, 
    {
        "city": "Patzic\u00eda", 
        "admin": "Chimaltenango", 
        "country": "Guatemala", 
        "population_proper": "", 
        "iso2": "GT", 
        "capital": "minor", 
        "lat": "14.631667", 
        "lng": "-90.926944", 
        "population": ""
    }, 
    {
        "city": "Cuyotenango", 
        "admin": "Suchitep\u00e9quez", 
        "country": "Guatemala", 
        "population_proper": "", 
        "iso2": "GT", 
        "capital": "minor", 
        "lat": "14.533333", 
        "lng": "-91.566667", 
        "population": ""
    }, 
    {
        "city": "San Bartolom\u00e9 Jocotenango", 
        "admin": "Quich\u00e9", 
        "country": "Guatemala", 
        "population_proper": "", 
        "iso2": "GT", 
        "capital": "minor", 
        "lat": "15.192778", 
        "lng": "-91.077222", 
        "population": ""
    }, 
    {
        "city": "San Bartolom\u00e9 Milpas Altas", 
        "admin": "Sacatep\u00e9quez", 
        "country": "Guatemala", 
        "population_proper": "", 
        "iso2": "GT", 
        "capital": "minor", 
        "lat": "14.606111", 
        "lng": "-90.68", 
        "population": ""
    }, 
    {
        "city": "San Bartolo", 
        "admin": "Totonicap\u00e1n", 
        "country": "Guatemala", 
        "population_proper": "", 
        "iso2": "GT", 
        "capital": "minor", 
        "lat": "15.084444", 
        "lng": "-91.455833", 
        "population": ""
    }, 
    {
        "city": "La Reforma", 
        "admin": "San Marcos", 
        "country": "Guatemala", 
        "population_proper": "", 
        "iso2": "GT", 
        "capital": "minor", 
        "lat": "14.8", 
        "lng": "-91.816667", 
        "population": ""
    }, 
    {
        "city": "Rabinal", 
        "admin": "Baja Verapaz", 
        "country": "Guatemala", 
        "population_proper": "", 
        "iso2": "GT", 
        "capital": "minor", 
        "lat": "15.1", 
        "lng": "-90.45", 
        "population": ""
    }, 
    {
        "city": "San Marcos La Laguna", 
        "admin": "Solol\u00e1", 
        "country": "Guatemala", 
        "population_proper": "", 
        "iso2": "GT", 
        "capital": "minor", 
        "lat": "14.716667", 
        "lng": "-91.266667", 
        "population": ""
    }, 
    {
        "city": "San Pedro Sacatep\u00e9quez", 
        "admin": "Guatemala", 
        "country": "Guatemala", 
        "population_proper": "", 
        "iso2": "GT", 
        "capital": "minor", 
        "lat": "14.684167", 
        "lng": "-90.644167", 
        "population": ""
    }, 
    {
        "city": "San Pedro Necta", 
        "admin": "Huehuetenango", 
        "country": "Guatemala", 
        "population_proper": "", 
        "iso2": "GT", 
        "capital": "minor", 
        "lat": "15.491423", 
        "lng": "-91.765505", 
        "population": ""
    }, 
    {
        "city": "San Jos\u00e9 Acatempa", 
        "admin": "Jutiapa", 
        "country": "Guatemala", 
        "population_proper": "", 
        "iso2": "GT", 
        "capital": "minor", 
        "lat": "14.265278", 
        "lng": "-90.126944", 
        "population": ""
    }, 
    {
        "city": "El Estor", 
        "admin": "Izabal", 
        "country": "Guatemala", 
        "population_proper": "", 
        "iso2": "GT", 
        "capital": "minor", 
        "lat": "15.533333", 
        "lng": "-89.35", 
        "population": ""
    }, 
    {
        "city": "San Andr\u00e9s", 
        "admin": "Pet\u00e9n", 
        "country": "Guatemala", 
        "population_proper": "", 
        "iso2": "GT", 
        "capital": "minor", 
        "lat": "16.966667", 
        "lng": "-89.916667", 
        "population": ""
    }, 
    {
        "city": "San Francisco", 
        "admin": "Pet\u00e9n", 
        "country": "Guatemala", 
        "population_proper": "", 
        "iso2": "GT", 
        "capital": "minor", 
        "lat": "16.8", 
        "lng": "-89.933333", 
        "population": ""
    }, 
    {
        "city": "Nueva Concepci\u00f3n", 
        "admin": "Escuintla", 
        "country": "Guatemala", 
        "population_proper": "", 
        "iso2": "GT", 
        "capital": "minor", 
        "lat": "14.2", 
        "lng": "-91.3", 
        "population": ""
    }, 
    {
        "city": "Cubulco", 
        "admin": "Baja Verapaz", 
        "country": "Guatemala", 
        "population_proper": "", 
        "iso2": "GT", 
        "capital": "minor", 
        "lat": "15.133333", 
        "lng": "-90.583333", 
        "population": ""
    }, 
    {
        "city": "Tacan\u00e1", 
        "admin": "San Marcos", 
        "country": "Guatemala", 
        "population_proper": "", 
        "iso2": "GT", 
        "capital": "minor", 
        "lat": "15.239325", 
        "lng": "-92.067365", 
        "population": ""
    }, 
    {
        "city": "Siquinal\u00e1", 
        "admin": "Escuintla", 
        "country": "Guatemala", 
        "population_proper": "", 
        "iso2": "GT", 
        "capital": "minor", 
        "lat": "14.306111", 
        "lng": "-90.965", 
        "population": ""
    }, 
    {
        "city": "San Sebasti\u00e1n Coat\u00e1n", 
        "admin": "Huehuetenango", 
        "country": "Guatemala", 
        "population_proper": "", 
        "iso2": "GT", 
        "capital": "minor", 
        "lat": "15.733333", 
        "lng": "-91.566667", 
        "population": ""
    }, 
    {
        "city": "San Sebasti\u00e1n", 
        "admin": "Retalhuleu", 
        "country": "Guatemala", 
        "population_proper": "", 
        "iso2": "GT", 
        "capital": "minor", 
        "lat": "14.566667", 
        "lng": "-91.65", 
        "population": ""
    }, 
    {
        "city": "Oc\u00f3s", 
        "admin": "San Marcos", 
        "country": "Guatemala", 
        "population_proper": "", 
        "iso2": "GT", 
        "capital": "minor", 
        "lat": "14.509981", 
        "lng": "-92.192984", 
        "population": ""
    }, 
    {
        "city": "San Raimundo", 
        "admin": "Guatemala", 
        "country": "Guatemala", 
        "population_proper": "", 
        "iso2": "GT", 
        "capital": "minor", 
        "lat": "14.764722", 
        "lng": "-90.595556", 
        "population": ""
    }, 
    {
        "city": "Ayutla", 
        "admin": "San Marcos", 
        "country": "Guatemala", 
        "population_proper": "", 
        "iso2": "GT", 
        "capital": "minor", 
        "lat": "14.673833", 
        "lng": "-92.139937", 
        "population": ""
    }, 
    {
        "city": "San Jos\u00e9 La Arada", 
        "admin": "Chiquimula", 
        "country": "Guatemala", 
        "population_proper": "", 
        "iso2": "GT", 
        "capital": "minor", 
        "lat": "14.716667", 
        "lng": "-89.583333", 
        "population": ""
    }, 
    {
        "city": "San Rafael Las Flores", 
        "admin": "Santa Rosa", 
        "country": "Guatemala", 
        "population_proper": "", 
        "iso2": "GT", 
        "capital": "minor", 
        "lat": "14.481389", 
        "lng": "-90.173333", 
        "population": ""
    }, 
    {
        "city": "San Rafael Petzal", 
        "admin": "Huehuetenango", 
        "country": "Guatemala", 
        "population_proper": "", 
        "iso2": "GT", 
        "capital": "minor", 
        "lat": "15.405032", 
        "lng": "-91.66526", 
        "population": ""
    }, 
    {
        "city": "Salcaj\u00e1", 
        "admin": "Quetzaltenango", 
        "country": "Guatemala", 
        "population_proper": "", 
        "iso2": "GT", 
        "capital": "minor", 
        "lat": "14.883333", 
        "lng": "-91.45", 
        "population": ""
    }, 
    {
        "city": "Chahal", 
        "admin": "Alta Verapaz", 
        "country": "Guatemala", 
        "population_proper": "", 
        "iso2": "GT", 
        "capital": "minor", 
        "lat": "15.75", 
        "lng": "-89.566667", 
        "population": ""
    }, 
    {
        "city": "Pasaco", 
        "admin": "Jutiapa", 
        "country": "Guatemala", 
        "population_proper": "", 
        "iso2": "GT", 
        "capital": "minor", 
        "lat": "13.977222", 
        "lng": "-90.206389", 
        "population": ""
    }, 
    {
        "city": "Villa Canales", 
        "admin": "Guatemala", 
        "country": "Guatemala", 
        "population_proper": "", 
        "iso2": "GT", 
        "capital": "minor", 
        "lat": "14.481389", 
        "lng": "-90.531667", 
        "population": ""
    }, 
    {
        "city": "Pochuta", 
        "admin": "Chimaltenango", 
        "country": "Guatemala", 
        "population_proper": "", 
        "iso2": "GT", 
        "capital": "minor", 
        "lat": "14.55", 
        "lng": "-91.083333", 
        "population": ""
    }, 
    {
        "city": "Playa Grande", 
        "admin": "Quich\u00e9", 
        "country": "Guatemala", 
        "population_proper": "", 
        "iso2": "GT", 
        "capital": "minor", 
        "lat": "15.933333", 
        "lng": "-90.733333", 
        "population": ""
    }, 
    {
        "city": "Purulh\u00e1", 
        "admin": "Baja Verapaz", 
        "country": "Guatemala", 
        "population_proper": "", 
        "iso2": "GT", 
        "capital": "minor", 
        "lat": "15.266667", 
        "lng": "-90.2", 
        "population": ""
    }, 
    {
        "city": "Jacaltenango", 
        "admin": "Huehuetenango", 
        "country": "Guatemala", 
        "population_proper": "", 
        "iso2": "GT", 
        "capital": "minor", 
        "lat": "15.666667", 
        "lng": "-91.733333", 
        "population": ""
    }, 
    {
        "city": "Dolores", 
        "admin": "Pet\u00e9n", 
        "country": "Guatemala", 
        "population_proper": "", 
        "iso2": "GT", 
        "capital": "minor", 
        "lat": "16.514167", 
        "lng": "-89.415833", 
        "population": ""
    }, 
    {
        "city": "Chichicastenango", 
        "admin": "Quich\u00e9", 
        "country": "Guatemala", 
        "population_proper": "", 
        "iso2": "GT", 
        "capital": "minor", 
        "lat": "14.933333", 
        "lng": "-91.116667", 
        "population": ""
    }, 
    {
        "city": "San Antonio Ilotenango", 
        "admin": "Quich\u00e9", 
        "country": "Guatemala", 
        "population_proper": "", 
        "iso2": "GT", 
        "capital": "minor", 
        "lat": "15.054722", 
        "lng": "-91.229722", 
        "population": ""
    }, 
    {
        "city": "Nent\u00f3n", 
        "admin": "Huehuetenango", 
        "country": "Guatemala", 
        "population_proper": "", 
        "iso2": "GT", 
        "capital": "minor", 
        "lat": "15.800702", 
        "lng": "-91.75464", 
        "population": ""
    }, 
    {
        "city": "El Tejar", 
        "admin": "Chimaltenango", 
        "country": "Guatemala", 
        "population_proper": "", 
        "iso2": "GT", 
        "capital": "minor", 
        "lat": "14.647778", 
        "lng": "-90.792778", 
        "population": ""
    }, 
    {
        "city": "San Pedro Jocopilas", 
        "admin": "Quich\u00e9", 
        "country": "Guatemala", 
        "population_proper": "", 
        "iso2": "GT", 
        "capital": "minor", 
        "lat": "15.094444", 
        "lng": "-91.151389", 
        "population": ""
    }, 
    {
        "city": "Cahab\u00f3n", 
        "admin": "Alta Verapaz", 
        "country": "Guatemala", 
        "population_proper": "", 
        "iso2": "GT", 
        "capital": "minor", 
        "lat": "15.566667", 
        "lng": "-89.816667", 
        "population": ""
    }, 
    {
        "city": "Chinautla", 
        "admin": "Guatemala", 
        "country": "Guatemala", 
        "population_proper": "", 
        "iso2": "GT", 
        "capital": "minor", 
        "lat": "14.708333", 
        "lng": "-90.499444", 
        "population": ""
    }, 
    {
        "city": "Zacualpa", 
        "admin": "Quich\u00e9", 
        "country": "Guatemala", 
        "population_proper": "", 
        "iso2": "GT", 
        "capital": "minor", 
        "lat": "15.083333", 
        "lng": "-90.833333", 
        "population": ""
    }, 
    {
        "city": "El J\u00edcaro", 
        "admin": "El Progreso", 
        "country": "Guatemala", 
        "population_proper": "", 
        "iso2": "GT", 
        "capital": "minor", 
        "lat": "14.916667", 
        "lng": "-89.9", 
        "population": ""
    }, 
    {
        "city": "Estanzuela", 
        "admin": "Zacapa", 
        "country": "Guatemala", 
        "population_proper": "", 
        "iso2": "GT", 
        "capital": "minor", 
        "lat": "15.0", 
        "lng": "-89.566667", 
        "population": ""
    }, 
    {
        "city": "San Crist\u00f3bal Totonicap\u00e1n", 
        "admin": "Totonicap\u00e1n", 
        "country": "Guatemala", 
        "population_proper": "", 
        "iso2": "GT", 
        "capital": "minor", 
        "lat": "14.916667", 
        "lng": "-91.433333", 
        "population": ""
    }, 
    {
        "city": "San Crist\u00f3bal Verapaz", 
        "admin": "Alta Verapaz", 
        "country": "Guatemala", 
        "population_proper": "", 
        "iso2": "GT", 
        "capital": "minor", 
        "lat": "15.383333", 
        "lng": "-90.4", 
        "population": ""
    }, 
    {
        "city": "San Diego", 
        "admin": "Zacapa", 
        "country": "Guatemala", 
        "population_proper": "", 
        "iso2": "GT", 
        "capital": "minor", 
        "lat": "14.783333", 
        "lng": "-89.783333", 
        "population": ""
    }, 
    {
        "city": "Concepci\u00f3n", 
        "admin": "Solol\u00e1", 
        "country": "Guatemala", 
        "population_proper": "", 
        "iso2": "GT", 
        "capital": "minor", 
        "lat": "14.783333", 
        "lng": "-91.15", 
        "population": ""
    }, 
    {
        "city": "Nueva Santa Rosa", 
        "admin": "Santa Rosa", 
        "country": "Guatemala", 
        "population_proper": "", 
        "iso2": "GT", 
        "capital": "minor", 
        "lat": "14.381111", 
        "lng": "-90.276111", 
        "population": ""
    }, 
    {
        "city": "San Mart\u00edn Sacatep\u00e9quez", 
        "admin": "Quetzaltenango", 
        "country": "Guatemala", 
        "population_proper": "", 
        "iso2": "GT", 
        "capital": "minor", 
        "lat": "14.816667", 
        "lng": "-91.65", 
        "population": ""
    }, 
    {
        "city": "San Miguel Due\u00f1as", 
        "admin": "Sacatep\u00e9quez", 
        "country": "Guatemala", 
        "population_proper": "", 
        "iso2": "GT", 
        "capital": "minor", 
        "lat": "14.523889", 
        "lng": "-90.798333", 
        "population": ""
    }, 
    {
        "city": "San Miguel Chicaj", 
        "admin": "Baja Verapaz", 
        "country": "Guatemala", 
        "population_proper": "", 
        "iso2": "GT", 
        "capital": "minor", 
        "lat": "15.1", 
        "lng": "-90.4", 
        "population": ""
    }, 
    {
        "city": "San Juan Ermita", 
        "admin": "Chiquimula", 
        "country": "Guatemala", 
        "population_proper": "", 
        "iso2": "GT", 
        "capital": "minor", 
        "lat": "14.766667", 
        "lng": "-89.433333", 
        "population": ""
    }, 
    {
        "city": "La Tinta", 
        "admin": "Alta Verapaz", 
        "country": "Guatemala", 
        "population_proper": "", 
        "iso2": "GT", 
        "capital": "minor", 
        "lat": "15.316667", 
        "lng": "-89.883333", 
        "population": ""
    }, 
    {
        "city": "El Adelanto", 
        "admin": "Jutiapa", 
        "country": "Guatemala", 
        "population_proper": "", 
        "iso2": "GT", 
        "capital": "minor", 
        "lat": "14.166667", 
        "lng": "-89.833333", 
        "population": ""
    }, 
    {
        "city": "Pachalun", 
        "admin": "Quich\u00e9", 
        "country": "Guatemala", 
        "population_proper": "", 
        "iso2": "GT", 
        "capital": "minor", 
        "lat": "14.924722", 
        "lng": "-90.662778", 
        "population": ""
    }, 
    {
        "city": "Raxruh\u00e1", 
        "admin": "Alta Verapaz", 
        "country": "Guatemala", 
        "population_proper": "", 
        "iso2": "GT", 
        "capital": "minor", 
        "lat": "15.866667", 
        "lng": "-90.033333", 
        "population": ""
    }, 
    {
        "city": "Flores Costa Cuca", 
        "admin": "Quetzaltenango", 
        "country": "Guatemala", 
        "population_proper": "", 
        "iso2": "GT", 
        "capital": "minor", 
        "lat": "14.65", 
        "lng": "-91.816667", 
        "population": ""
    }, 
    {
        "city": "Santa Mar\u00eda Chiquimula", 
        "admin": "Totonicap\u00e1n", 
        "country": "Guatemala", 
        "population_proper": "", 
        "iso2": "GT", 
        "capital": "minor", 
        "lat": "15.030278", 
        "lng": "-91.329167", 
        "population": ""
    }, 
    {
        "city": "Santa Mar\u00eda de Jes\u00fas", 
        "admin": "Sacatep\u00e9quez", 
        "country": "Guatemala", 
        "population_proper": "", 
        "iso2": "GT", 
        "capital": "minor", 
        "lat": "14.518333", 
        "lng": "-90.726667", 
        "population": ""
    }, 
    {
        "city": "Sipacapa", 
        "admin": "San Marcos", 
        "country": "Guatemala", 
        "population_proper": "", 
        "iso2": "GT", 
        "capital": "minor", 
        "lat": "15.212457", 
        "lng": "-91.634163", 
        "population": ""
    }, 
    {
        "city": "Guatemala City", 
        "admin": "Guatemala", 
        "country": "Guatemala", 
        "population_proper": "", 
        "iso2": "GT", 
        "capital": "primary", 
        "lat": "14.621111", 
        "lng": "-90.526944", 
        "population": ""
    }, 
    {
        "city": "Jalpatagua", 
        "admin": "Jutiapa", 
        "country": "Guatemala", 
        "population_proper": "", 
        "iso2": "GT", 
        "capital": "minor", 
        "lat": "14.141667", 
        "lng": "-90.008611", 
        "population": ""
    }, 
    {
        "city": "Camot\u00e1n", 
        "admin": "Chiquimula", 
        "country": "Guatemala", 
        "population_proper": "", 
        "iso2": "GT", 
        "capital": "minor", 
        "lat": "14.816667", 
        "lng": "-89.366667", 
        "population": ""
    }, 
    {
        "city": "Nahual\u00e1", 
        "admin": "Solol\u00e1", 
        "country": "Guatemala", 
        "population_proper": "", 
        "iso2": "GT", 
        "capital": "minor", 
        "lat": "14.85", 
        "lng": "-91.316667", 
        "population": ""
    }, 
    {
        "city": "Nuevo Progreso", 
        "admin": "San Marcos", 
        "country": "Guatemala", 
        "population_proper": "", 
        "iso2": "GT", 
        "capital": "minor", 
        "lat": "14.8", 
        "lng": "-91.916667", 
        "population": ""
    }, 
    {
        "city": "Nuevo San Carlos", 
        "admin": "Retalhuleu", 
        "country": "Guatemala", 
        "population_proper": "", 
        "iso2": "GT", 
        "capital": "minor", 
        "lat": "14.6", 
        "lng": "-91.7", 
        "population": ""
    }, 
    {
        "city": "San Miguel Pan\u00e1n", 
        "admin": "Suchitep\u00e9quez", 
        "country": "Guatemala", 
        "population_proper": "", 
        "iso2": "GT", 
        "capital": "minor", 
        "lat": "14.533333", 
        "lng": "-91.366667", 
        "population": ""
    }, 
    {
        "city": "San Miguel Sig\u00fcil\u00e1", 
        "admin": "Quetzaltenango", 
        "country": "Guatemala", 
        "population_proper": "", 
        "iso2": "GT", 
        "capital": "minor", 
        "lat": "14.9", 
        "lng": "-91.616667", 
        "population": ""
    }, 
    {
        "city": "San Juan Atit\u00e1n", 
        "admin": "Huehuetenango", 
        "country": "Guatemala", 
        "population_proper": "", 
        "iso2": "GT", 
        "capital": "minor", 
        "lat": "15.428861", 
        "lng": "-91.623981", 
        "population": ""
    }, 
    {
        "city": "Santa Apolonia", 
        "admin": "Chimaltenango", 
        "country": "Guatemala", 
        "population_proper": "", 
        "iso2": "GT", 
        "capital": "minor", 
        "lat": "14.791389", 
        "lng": "-90.970833", 
        "population": ""
    }, 
    {
        "city": "San Juan Bautista", 
        "admin": "Suchitep\u00e9quez", 
        "country": "Guatemala", 
        "population_proper": "", 
        "iso2": "GT", 
        "capital": "minor", 
        "lat": "14.416667", 
        "lng": "-91.183333", 
        "population": ""
    }, 
    {
        "city": "Santa B\u00e1rbara", 
        "admin": "Suchitep\u00e9quez", 
        "country": "Guatemala", 
        "population_proper": "", 
        "iso2": "GT", 
        "capital": "minor", 
        "lat": "14.433333", 
        "lng": "-91.233333", 
        "population": ""
    }, 
    {
        "city": "Malacatancito", 
        "admin": "Huehuetenango", 
        "country": "Guatemala", 
        "population_proper": "", 
        "iso2": "GT", 
        "capital": "minor", 
        "lat": "15.216667", 
        "lng": "-91.516667", 
        "population": ""
    }, 
    {
        "city": "Panz\u00f3s", 
        "admin": "Alta Verapaz", 
        "country": "Guatemala", 
        "population_proper": "", 
        "iso2": "GT", 
        "capital": "minor", 
        "lat": "15.4", 
        "lng": "-89.666667", 
        "population": ""
    }, 
    {
        "city": "Santa Luc\u00eda Utatl\u00e1n", 
        "admin": "Solol\u00e1", 
        "country": "Guatemala", 
        "population_proper": "", 
        "iso2": "GT", 
        "capital": "minor", 
        "lat": "14.766667", 
        "lng": "-91.266667", 
        "population": ""
    }, 
    {
        "city": "Palencia", 
        "admin": "Guatemala", 
        "country": "Guatemala", 
        "population_proper": "", 
        "iso2": "GT", 
        "capital": "minor", 
        "lat": "14.664722", 
        "lng": "-90.358611", 
        "population": ""
    }, 
    {
        "city": "San Carlos Alzatate", 
        "admin": "Jalapa", 
        "country": "Guatemala", 
        "population_proper": "", 
        "iso2": "GT", 
        "capital": "minor", 
        "lat": "14.497778", 
        "lng": "-90.060278", 
        "population": ""
    }, 
    {
        "city": "Santa Ana Huista", 
        "admin": "Huehuetenango", 
        "country": "Guatemala", 
        "population_proper": "", 
        "iso2": "GT", 
        "capital": "minor", 
        "lat": "15.680854", 
        "lng": "-91.820048", 
        "population": ""
    }, 
    {
        "city": "Ixchigu\u00e1n", 
        "admin": "San Marcos", 
        "country": "Guatemala", 
        "population_proper": "", 
        "iso2": "GT", 
        "capital": "minor", 
        "lat": "15.2", 
        "lng": "-91.883333", 
        "population": ""
    }, 
    {
        "city": "Ipala", 
        "admin": "Chiquimula", 
        "country": "Guatemala", 
        "population_proper": "", 
        "iso2": "GT", 
        "capital": "minor", 
        "lat": "14.616667", 
        "lng": "-89.616667", 
        "population": ""
    }, 
    {
        "city": "La Uni\u00f3n", 
        "admin": "Zacapa", 
        "country": "Guatemala", 
        "population_proper": "", 
        "iso2": "GT", 
        "capital": "minor", 
        "lat": "14.966667", 
        "lng": "-89.283333", 
        "population": ""
    }, 
    {
        "city": "San Mateo Ixtat\u00e1n", 
        "admin": "Huehuetenango", 
        "country": "Guatemala", 
        "population_proper": "", 
        "iso2": "GT", 
        "capital": "minor", 
        "lat": "15.831944", 
        "lng": "-91.478056", 
        "population": ""
    }, 
    {
        "city": "Santa Catarina Barahona", 
        "admin": "Sacatep\u00e9quez", 
        "country": "Guatemala", 
        "population_proper": "", 
        "iso2": "GT", 
        "capital": "minor", 
        "lat": "14.548889", 
        "lng": "-90.788333", 
        "population": ""
    }, 
    {
        "city": "Santa Catarina Ixtahuac\u00e1n", 
        "admin": "Solol\u00e1", 
        "country": "Guatemala", 
        "population_proper": "", 
        "iso2": "GT", 
        "capital": "minor", 
        "lat": "14.8", 
        "lng": "-91.366667", 
        "population": ""
    }, 
    {
        "city": "Santa Catarina Mita", 
        "admin": "Jutiapa", 
        "country": "Guatemala", 
        "population_proper": "", 
        "iso2": "GT", 
        "capital": "minor", 
        "lat": "14.45", 
        "lng": "-89.75", 
        "population": ""
    }, 
    {
        "city": "Santa Catarina Palop\u00f3", 
        "admin": "Solol\u00e1", 
        "country": "Guatemala", 
        "population_proper": "", 
        "iso2": "GT", 
        "capital": "minor", 
        "lat": "14.716667", 
        "lng": "-91.133333", 
        "population": ""
    }, 
    {
        "city": "Iztapa", 
        "admin": "Escuintla", 
        "country": "Guatemala", 
        "population_proper": "", 
        "iso2": "GT", 
        "capital": "minor", 
        "lat": "13.933333", 
        "lng": "-90.7075", 
        "population": ""
    }, 
    {
        "city": "Santiago Sacatep\u00e9quez", 
        "admin": "Sacatep\u00e9quez", 
        "country": "Guatemala", 
        "population_proper": "", 
        "iso2": "GT", 
        "capital": "minor", 
        "lat": "14.635278", 
        "lng": "-90.676389", 
        "population": ""
    }, 
    {
        "city": "Tactic", 
        "admin": "Alta Verapaz", 
        "country": "Guatemala", 
        "population_proper": "", 
        "iso2": "GT", 
        "capital": "minor", 
        "lat": "15.333333", 
        "lng": "-90.3", 
        "population": ""
    }, 
    {
        "city": "San Luis Jilotepeque", 
        "admin": "Jalapa", 
        "country": "Guatemala", 
        "population_proper": "", 
        "iso2": "GT", 
        "capital": "minor", 
        "lat": "14.65", 
        "lng": "-89.733333", 
        "population": ""
    }, 
    {
        "city": "Zaragoza", 
        "admin": "Chimaltenango", 
        "country": "Guatemala", 
        "population_proper": "", 
        "iso2": "GT", 
        "capital": "minor", 
        "lat": "14.654444", 
        "lng": "-90.889444", 
        "population": ""
    }, 
    {
        "city": "Moyuta", 
        "admin": "Jutiapa", 
        "country": "Guatemala", 
        "population_proper": "", 
        "iso2": "GT", 
        "capital": "minor", 
        "lat": "14.038611", 
        "lng": "-90.080833", 
        "population": ""
    }, 
    {
        "city": "Cun\u00e9n", 
        "admin": "Quich\u00e9", 
        "country": "Guatemala", 
        "population_proper": "", 
        "iso2": "GT", 
        "capital": "minor", 
        "lat": "15.3375", 
        "lng": "-91.026944", 
        "population": ""
    }, 
    {
        "city": "Santa Eulalia", 
        "admin": "Huehuetenango", 
        "country": "Guatemala", 
        "population_proper": "", 
        "iso2": "GT", 
        "capital": "minor", 
        "lat": "15.733056", 
        "lng": "-91.456944", 
        "population": ""
    }, 
    {
        "city": "Santo Domingo Xenacoj", 
        "admin": "Sacatep\u00e9quez", 
        "country": "Guatemala", 
        "population_proper": "", 
        "iso2": "GT", 
        "capital": "minor", 
        "lat": "14.677778", 
        "lng": "-90.697778", 
        "population": ""
    }, 
    {
        "city": "Asunci\u00f3n Mita", 
        "admin": "Jutiapa", 
        "country": "Guatemala", 
        "population_proper": "", 
        "iso2": "GT", 
        "capital": "minor", 
        "lat": "14.330833", 
        "lng": "-89.710833", 
        "population": ""
    }, 
    {
        "city": "La Esperanza", 
        "admin": "Quetzaltenango", 
        "country": "Guatemala", 
        "population_proper": "", 
        "iso2": "GT", 
        "capital": "minor", 
        "lat": "14.866667", 
        "lng": "-91.566667", 
        "population": ""
    }, 
    {
        "city": "San Juan Sacatep\u00e9quez", 
        "admin": "Guatemala", 
        "country": "Guatemala", 
        "population_proper": "", 
        "iso2": "GT", 
        "capital": "minor", 
        "lat": "14.718889", 
        "lng": "-90.644167", 
        "population": ""
    }, 
    {
        "city": "Santa Clara La Laguna", 
        "admin": "Solol\u00e1", 
        "country": "Guatemala", 
        "population_proper": "", 
        "iso2": "GT", 
        "capital": "minor", 
        "lat": "14.716667", 
        "lng": "-91.3", 
        "population": ""
    }, 
    {
        "city": "San Antonio Palop\u00f3", 
        "admin": "Solol\u00e1", 
        "country": "Guatemala", 
        "population_proper": "", 
        "iso2": "GT", 
        "capital": "minor", 
        "lat": "14.7", 
        "lng": "-91.116667", 
        "population": ""
    }, 
    {
        "city": "Pastores", 
        "admin": "Sacatep\u00e9quez", 
        "country": "Guatemala", 
        "population_proper": "", 
        "iso2": "GT", 
        "capital": "minor", 
        "lat": "14.596667", 
        "lng": "-90.754722", 
        "population": ""
    }, 
    {
        "city": "Patzit\u00e9", 
        "admin": "Quich\u00e9", 
        "country": "Guatemala", 
        "population_proper": "", 
        "iso2": "GT", 
        "capital": "minor", 
        "lat": "14.966667", 
        "lng": "-91.216667", 
        "population": ""
    }, 
    {
        "city": "San Jos\u00e9 El \u00cddolo", 
        "admin": "Suchitep\u00e9quez", 
        "country": "Guatemala", 
        "population_proper": "", 
        "iso2": "GT", 
        "capital": "minor", 
        "lat": "14.45", 
        "lng": "-91.416667", 
        "population": ""
    }, 
    {
        "city": "R\u00edo Blanco", 
        "admin": "San Marcos", 
        "country": "Guatemala", 
        "population_proper": "", 
        "iso2": "GT", 
        "capital": "minor", 
        "lat": "15.038199", 
        "lng": "-91.684631", 
        "population": ""
    }, 
    {
        "city": "Conguaco", 
        "admin": "Jutiapa", 
        "country": "Guatemala", 
        "population_proper": "", 
        "iso2": "GT", 
        "capital": "minor", 
        "lat": "14.044167", 
        "lng": "-90.031111", 
        "population": ""
    }, 
    {
        "city": "San Jos\u00e9 del Golfo", 
        "admin": "Guatemala", 
        "country": "Guatemala", 
        "population_proper": "", 
        "iso2": "GT", 
        "capital": "minor", 
        "lat": "14.762778", 
        "lng": "-90.376389", 
        "population": ""
    }, 
    {
        "city": "San Lorenzo", 
        "admin": "San Marcos", 
        "country": "Guatemala", 
        "population_proper": "", 
        "iso2": "GT", 
        "capital": "minor", 
        "lat": "15.030868", 
        "lng": "-91.735344", 
        "population": ""
    }, 
    {
        "city": "San Lorenzo", 
        "admin": "Suchitep\u00e9quez", 
        "country": "Guatemala", 
        "population_proper": "", 
        "iso2": "GT", 
        "capital": "minor", 
        "lat": "14.483333", 
        "lng": "-91.516667", 
        "population": ""
    }, 
    {
        "city": "Oratorio", 
        "admin": "Santa Rosa", 
        "country": "Guatemala", 
        "population_proper": "", 
        "iso2": "GT", 
        "capital": "minor", 
        "lat": "14.228056", 
        "lng": "-90.175833", 
        "population": ""
    }, 
    {
        "city": "Morales", 
        "admin": "Izabal", 
        "country": "Guatemala", 
        "population_proper": "", 
        "iso2": "GT", 
        "capital": "minor", 
        "lat": "15.483333", 
        "lng": "-88.816667", 
        "population": ""
    }, 
    {
        "city": "Chisec", 
        "admin": "Alta Verapaz", 
        "country": "Guatemala", 
        "population_proper": "", 
        "iso2": "GT", 
        "capital": "minor", 
        "lat": "15.816667", 
        "lng": "-90.283333", 
        "population": ""
    }, 
    {
        "city": "Acatenango", 
        "admin": "Chimaltenango", 
        "country": "Guatemala", 
        "population_proper": "", 
        "iso2": "GT", 
        "capital": "minor", 
        "lat": "14.551944", 
        "lng": "-90.942222", 
        "population": ""
    }, 
    {
        "city": "Santa Cruz Mulu\u00e1", 
        "admin": "Retalhuleu", 
        "country": "Guatemala", 
        "population_proper": "", 
        "iso2": "GT", 
        "capital": "minor", 
        "lat": "14.583333", 
        "lng": "-91.616667", 
        "population": ""
    }, 
    {
        "city": "Santa Cruz La Laguna", 
        "admin": "Solol\u00e1", 
        "country": "Guatemala", 
        "population_proper": "", 
        "iso2": "GT", 
        "capital": "minor", 
        "lat": "14.75", 
        "lng": "-91.216667", 
        "population": ""
    }, 
    {
        "city": "Santa Cruz Verapaz", 
        "admin": "Alta Verapaz", 
        "country": "Guatemala", 
        "population_proper": "", 
        "iso2": "GT", 
        "capital": "minor", 
        "lat": "15.366667", 
        "lng": "-90.433333", 
        "population": ""
    }, 
    {
        "city": "Santa Cruz Naranjo", 
        "admin": "Santa Rosa", 
        "country": "Guatemala", 
        "population_proper": "", 
        "iso2": "GT", 
        "capital": "minor", 
        "lat": "14.388056", 
        "lng": "-90.369722", 
        "population": ""
    }, 
    {
        "city": "Cabric\u00e1n", 
        "admin": "Quetzaltenango", 
        "country": "Guatemala", 
        "population_proper": "", 
        "iso2": "GT", 
        "capital": "minor", 
        "lat": "15.074846", 
        "lng": "-91.648003", 
        "population": ""
    }, 
    {
        "city": "San Francisco Zapotitl\u00e1n", 
        "admin": "Suchitep\u00e9quez", 
        "country": "Guatemala", 
        "population_proper": "", 
        "iso2": "GT", 
        "capital": "minor", 
        "lat": "14.583333", 
        "lng": "-91.516667", 
        "population": ""
    }, 
    {
        "city": "San Gabriel", 
        "admin": "Suchitep\u00e9quez", 
        "country": "Guatemala", 
        "population_proper": "", 
        "iso2": "GT", 
        "capital": "minor", 
        "lat": "14.516667", 
        "lng": "-91.516667", 
        "population": ""
    }, 
    {
        "city": "Chajul", 
        "admin": "Quich\u00e9", 
        "country": "Guatemala", 
        "population_proper": "", 
        "iso2": "GT", 
        "capital": "minor", 
        "lat": "15.485278", 
        "lng": "-91.034167", 
        "population": ""
    }, 
    {
        "city": "Cantel", 
        "admin": "Quetzaltenango", 
        "country": "Guatemala", 
        "population_proper": "", 
        "iso2": "GT", 
        "capital": "minor", 
        "lat": "14.816667", 
        "lng": "-91.45", 
        "population": ""
    }, 
    {
        "city": "Santiago Chimaltenango", 
        "admin": "Huehuetenango", 
        "country": "Guatemala", 
        "population_proper": "", 
        "iso2": "GT", 
        "capital": "minor", 
        "lat": "15.476582", 
        "lng": "-91.696555", 
        "population": ""
    }, 
    {
        "city": "Santiago Atitl\u00e1n", 
        "admin": "Solol\u00e1", 
        "country": "Guatemala", 
        "population_proper": "", 
        "iso2": "GT", 
        "capital": "minor", 
        "lat": "14.633333", 
        "lng": "-91.233333", 
        "population": ""
    }, 
    {
        "city": "Villa Nueva", 
        "admin": "Guatemala", 
        "country": "Guatemala", 
        "population_proper": "", 
        "iso2": "GT", 
        "capital": "minor", 
        "lat": "14.526944", 
        "lng": "-90.5875", 
        "population": ""
    }, 
    {
        "city": "San Pedro Sacatep\u00e9quez", 
        "admin": "San Marcos", 
        "country": "Guatemala", 
        "population_proper": "", 
        "iso2": "GT", 
        "capital": "minor", 
        "lat": "14.966667", 
        "lng": "-91.766667", 
        "population": ""
    }, 
    {
        "city": "San Pedro Pinula", 
        "admin": "Jalapa", 
        "country": "Guatemala", 
        "population_proper": "", 
        "iso2": "GT", 
        "capital": "minor", 
        "lat": "14.666667", 
        "lng": "-89.85", 
        "population": ""
    }, 
    {
        "city": "San Lucas Tolim\u00e1n", 
        "admin": "Solol\u00e1", 
        "country": "Guatemala", 
        "population_proper": "", 
        "iso2": "GT", 
        "capital": "minor", 
        "lat": "14.633333", 
        "lng": "-91.133333", 
        "population": ""
    }, 
    {
        "city": "Monjas", 
        "admin": "Jalapa", 
        "country": "Guatemala", 
        "population_proper": "", 
        "iso2": "GT", 
        "capital": "minor", 
        "lat": "14.5", 
        "lng": "-89.866667", 
        "population": ""
    }, 
    {
        "city": "Momostenango", 
        "admin": "Totonicap\u00e1n", 
        "country": "Guatemala", 
        "population_proper": "", 
        "iso2": "GT", 
        "capital": "minor", 
        "lat": "15.043611", 
        "lng": "-91.408611", 
        "population": ""
    }, 
    {
        "city": "Chich\u00e9", 
        "admin": "Quich\u00e9", 
        "country": "Guatemala", 
        "population_proper": "", 
        "iso2": "GT", 
        "capital": "minor", 
        "lat": "15.008611", 
        "lng": "-91.065", 
        "population": ""
    }, 
    {
        "city": "Amatitl\u00e1n", 
        "admin": "Guatemala", 
        "country": "Guatemala", 
        "population_proper": "", 
        "iso2": "GT", 
        "capital": "minor", 
        "lat": "14.4875", 
        "lng": "-90.615278", 
        "population": ""
    }, 
    {
        "city": "Concepci\u00f3n", 
        "admin": "Huehuetenango", 
        "country": "Guatemala", 
        "population_proper": "", 
        "iso2": "GT", 
        "capital": "minor", 
        "lat": "15.616667", 
        "lng": "-91.683333", 
        "population": ""
    }, 
    {
        "city": "Barberena", 
        "admin": "Santa Rosa", 
        "country": "Guatemala", 
        "population_proper": "", 
        "iso2": "GT", 
        "capital": "minor", 
        "lat": "14.309444", 
        "lng": "-90.361111", 
        "population": ""
    }, 
    {
        "city": "Pueblo Nuevo Vi\u00f1as", 
        "admin": "Santa Rosa", 
        "country": "Guatemala", 
        "population_proper": "", 
        "iso2": "GT", 
        "capital": "minor", 
        "lat": "14.225833", 
        "lng": "-90.474167", 
        "population": ""
    }, 
    {
        "city": "San Antonio La Paz", 
        "admin": "El Progreso", 
        "country": "Guatemala", 
        "population_proper": "", 
        "iso2": "GT", 
        "capital": "minor", 
        "lat": "14.749722", 
        "lng": "-90.286667", 
        "population": ""
    }, 
    {
        "city": "Colotenango", 
        "admin": "Huehuetenango", 
        "country": "Guatemala", 
        "population_proper": "", 
        "iso2": "GT", 
        "capital": "minor", 
        "lat": "15.405063", 
        "lng": "-91.714352", 
        "population": ""
    }, 
    {
        "city": "San Pedro Carch\u00e1", 
        "admin": "Alta Verapaz", 
        "country": "Guatemala", 
        "population_proper": "", 
        "iso2": "GT", 
        "capital": "minor", 
        "lat": "15.483333", 
        "lng": "-90.266667", 
        "population": ""
    }, 
    {
        "city": "San Pedro Ayampuc", 
        "admin": "Guatemala", 
        "country": "Guatemala", 
        "population_proper": "", 
        "iso2": "GT", 
        "capital": "minor", 
        "lat": "14.786667", 
        "lng": "-90.451111", 
        "population": ""
    }, 
    {
        "city": "Chicacao", 
        "admin": "Suchitep\u00e9quez", 
        "country": "Guatemala", 
        "population_proper": "", 
        "iso2": "GT", 
        "capital": "minor", 
        "lat": "14.533333", 
        "lng": "-91.316667", 
        "population": ""
    }, 
    {
        "city": "Agua Blanca", 
        "admin": "Jutiapa", 
        "country": "Guatemala", 
        "population_proper": "", 
        "iso2": "GT", 
        "capital": "minor", 
        "lat": "14.5", 
        "lng": "-89.65", 
        "population": ""
    }, 
    {
        "city": "La Libertad", 
        "admin": "Huehuetenango", 
        "country": "Guatemala", 
        "population_proper": "", 
        "iso2": "GT", 
        "capital": "minor", 
        "lat": "15.514208", 
        "lng": "-91.869436", 
        "population": ""
    }, 
    {
        "city": "Granados", 
        "admin": "Baja Verapaz", 
        "country": "Guatemala", 
        "population_proper": "", 
        "iso2": "GT", 
        "capital": "minor", 
        "lat": "14.913611", 
        "lng": "-90.522778", 
        "population": ""
    },